country,City,ClinicName,Latitude,Longitude,Address,Phone Number,Website,name,url
italy,Casale Monferrato,Ambulatorio di Procreazione Medicalmente Assistita - Ospedale S. Spirito - ASL 21 - Casale Monferrato,,,,,,,
italy,Tortona,Medicart - Centro Cardiologico e Polispecialistico s.r.l.,44.9079871,8.8753042,"Via Brigata Garibaldi 1/A, 15057 Tortona AL, Italy",0131 866267,http://www.medicartsrl.it/,MedicArt Centri Medici Diagnostici e Polispecialistici,https://maps.google.com/?cid=11621434157890577963
italy,Ancona,Centro PMA - Presidio Ospedaliero G. Salesi,43.6168727,13.5319658,"Via Filippo Corridoni, 11, 60123 Ancona AN, Italy",071 5961,http://www.ospedaliriuniti.marche.it/portale/index.php?id_sezione=37&id_doc=430,Ancona Hospital Salesi,https://maps.google.com/?cid=9126104112662060808
italy,Ancona,Future Medical Care,43.5941954,13.5026966,"Via Achille Barilatti, 7, 60127 Ancona AN, Italy",071 236 0975,https://www.futuremedicalcare.it/,"FMC - FUTURE MEDICAL CARE - Struttura Sanitaria Polispecialistica, Diagnostica, Chirurgica e Centro PMA di II^ Livello",https://maps.google.com/?cid=13695754095971268597
italy,Senigallia,Villa Sorriso,43.7087874,13.2340792,"Lungomare Dante Alighieri, 98, 60019 Senigallia AN, Italy",328 792 0988,http://www.hotelvillasorrisosenigallia.it/,Hotel Villa Sorriso,https://maps.google.com/?cid=6768537471657671830
italy,Aosta,Centro PMA Valle d'Aosta,45.7429634,7.3413605,"Via L. Vaccari, 5, 11100 Aosta AO, Italy",0165 5431,,Ospedale Beauregard,https://maps.google.com/?cid=16534867955615399169
italy,Ascoli Piceno,Fertility Center - Centro Analisi,42.8545104,13.5923244,"Viale Indipendenza, 42, 63100 Ascoli Piceno AP, Italy",0736 336246,https://www.centrodiagnosticopiceno.it/,Centro Diagnostico Piceno,https://maps.google.com/?cid=6499927669051064721
italy,Ascoli Piceno,Fertlity Center,42.8587397,13.5789336,"Viale Vellei Sinibaldo, 16, 63100 Ascoli Piceno AP, Italy",0736 521202,https://centromedicoascoli.it/,Medical Center,https://maps.google.com/?cid=17980815097211115604
italy,L'Aquila,U.O.C. Ostetricia e Ginecologia D.U. (con Centro Fivet) - del P.O. dell'Aquila,,,,,,,
italy,Cortona,Centro Procreazione Medicalmente Assistita - Ospedale Valdichiana Santa Margherita,43.2787274,11.9236675,"Ospedale Santa Margherita di Cortona, Località Fratta, 145, 52044 Cortona AR, Italy",0575 639272,http://www.retepma.it/,Centro di PMA - Ospedale Santa Margherita di Cortona,https://maps.google.com/?cid=11032904310109324476
italy,Asti,Centro di Medicina della Riproduzione - SOC Ostetricia e Ginecologia dell'Ospedale Cardinal Massaia,44.9124245,8.1945359,"Corso Dante Alighieri, 202, 14100 Asti AT, Italy",0141 481111,http://portale.asl.at.it/Apps/portaleasl.nsf/index.htm,Ospedale Cardinal Massaia,https://maps.google.com/?cid=16123837545118080007
italy,Avellino,Fisiopatologia della Riproduzione e Sterilità di Coppia - A.O.R.N. San Giuseppe Moscati di Avellino,,,,,,,
italy,Bari,Centro di Procreazione Medicalmente Assistita (PMA) e Congelamento dei Gameti e Biobanca- A.O. Policlinico Consorziale di Bari,41.1144475,16.862997,"Via Lucera, 6, 70124 Bari BA, Italy",800 088 247,https://ivitalia.it/centri/bari/?utm_source=google-mb&utm_medium=organic&utm_campaign=ivi_it_clinica-bari_conversion,IVI Bari,https://maps.google.com/?cid=2928107983960102917
italy,Bari,"Centro Medico ""San Luca""",41.1096938,16.8602551,"Viale Orazio Flacco, 11, 70124 Bari BA, Italy",080 561 7851,http://www.procreare.it/,San Luca Medical Center,https://maps.google.com/?cid=4088251082718776032
italy,Acquaviva delle Fonti,"Centro per la Diagnosi e Terapia dell'Infertilità di Coppia - Ospedale Generale Regionale ""F. Miulli""",,,,,,,
italy,Bari,Centro PMA - Casa di Cura Santa Maria,41.1087836,16.8615205,"Via Antonio de Ferrariis, 22, 70124 Bari BA, Italy",080 504 0111,https://ospedali.gvmnet.it/osp/ospedale-santa-maria?utm_source=google&utm_medium=Yext&utm_campaign=GVMOSM6&y_source=1_MzE1ODQ0MTEtNzE1LWxvY2F0aW9uLndlYnNpdGU%3D,Santa Maria Spa,https://maps.google.com/?cid=3290454991336463245
italy,Bari,IVI Bari S.r.l.,41.1144475,16.862997,"Via Lucera, 6, 70124 Bari BA, Italy",800 088 247,https://ivitalia.it/centri/bari/?utm_source=google-mb&utm_medium=organic&utm_campaign=ivi_it_clinica-bari_conversion,IVI Bari,https://maps.google.com/?cid=2928107983960102917
italy,Molfetta,Prolab srl,41.2013138,16.5991859,"Via Bettino Ricasoli, 2, 70056 Molfetta BA, Italy",080 876 5177,https://www.prolab-pma.it/,Prolab Srl - Centro di Procreazione Medicalmente Assistita,https://maps.google.com/?cid=14089124267039306385
italy,Conversano,U.O. Fisiopatologia della Riproduzione Umana e P.M.A.,,,,,,,
italy,Bergamo,Centro di Fisiopatologia della Riproduzione - A.O. Papa Giovanni XXIII,45.6859074,9.6365205,"Piazza OMS, 1, 24127 Bergamo BG, Italy",035 267111,http://www.asst-pg23.it/,ASST Ospedale Papa Giovanni XXIII,https://maps.google.com/?cid=11139866532322451328
italy,Osio Sotto,Centro di PMA Istituti Ospedalieri Bergamaschi - Policlinico San Marco,45.6040971,9.591104,"Policlinico San Marco, Corso Europa, 7, 24046 Osio Sotto BG, Italy",348 377 2896,http://eeiasrl.com/,EEIA PMA - Centro Procreazione Medicalmente Assistita,https://maps.google.com/?cid=5967560112277787207
italy,Ponte San Pietro,Centro PMA - Policlinico San Pietro,45.6981874,9.5753808,"Via Carlo Forlanini, 15, 24036 Ponte San Pietro BG, Italy",035 604111,https://www.grupposandonato.it/strutture/policlinico-san-pietro,Policlinico San Pietro,https://maps.google.com/?cid=1218788236015769482
italy,Biella,Centro di PMA - Struttura Complessa di Ostetricia e Ginecologia - Ospedale degli Infermi - ASL 12,,,,,,,
italy,Pieve di Cadore,"Ospedale ""Giovanni Paolo II"" Pieve di Cadore",46.4315758,12.376117,"Via Cogonie, 30, 32044 Pieve di Cadore BL, Italy",0435 3411,https://www.aulss1.veneto.it/sezione/ospedale-di-pieve-di-cadore/,"The Hospital ""Giovanni Paolo II""",https://maps.google.com/?cid=8111704774758568581
italy,Montesarchio,Centro Gamma s.r.l,41.0642911,14.6371709,"Via San Rocco, 20, 82016 Montesarchio BN, Italy",0824 831131,https://www.centrogammamontesarchio.it/,PMA Centro Gamma srl,https://maps.google.com/?cid=11137606987263849548
italy,Benevento,"Fisiopatologia Riproduzione Umana e Diagnosi Prenatale Integrata -P.O. ""G. Rummo"" - A.O. ""San Pio""",,,,,,,
italy,Benevento,Humanafertilitas,41.1304357,14.7991714,"V.le Mario Rotili, 70, 82100 Benevento BN, Italy",351 644 0422,http://www.humanafertilitas.it/,HUMANA Presidio Sanitario - Humanafertilitas - Humanavista,https://maps.google.com/?cid=14185626806606754660
italy,Bologna,Poliambulatorio Privato Day Surgery Next Fertility GynePro,44.4862793,11.3466012,"Viale XII Giugno, 20, 40124 Bologna BO, Italy",051 442094,https://nextfertilitygynepro.it/,Next Fertility GynePro,https://maps.google.com/?cid=16908558905064395324
italy,Bologna,SISMER - Società Italiana Studi di Medicina della Riproduzione,,,,,,,
italy,Bologna,"Str. Sempl. Dipt. di Infertilità e PMA - Centro di riferimento regionale per la preservazione della fertilità nei pazienti oncologici - Dipt. Attività Integrata del Bambino, della Donna e delle Malattie Urologiche - AOU Policlinico S. Orsola Malpighi",,,,,,,
italy,Bologna,Tecnobios Procreazione s.r.l.,44.4872246,11.3587432,"Via Dante, 15, 40125 Bologna BO, Italy",051 286 7511,https://www.tecnobiosprocreazione.it/,Tecnobios Procreazione srl,https://maps.google.com/?cid=15098567160035997412
italy,Brindisi,Casa di Cura SALUS s.r.l.,40.6286999,17.9241193,"Via Appia, 348, 72100 Brindisi BR, Italy",0831 581505,https://www.casadicurasalus.it/,Casa di Cura Salus - Brindisi,https://maps.google.com/?cid=7954733822708542902
italy,Carovigno,Centro PMA I Livello - Dott. Giuseppe Lanzilotti,40.7104824,17.658764,"Viale Foggia, 1, 72012 Carovigno BR, Italy",338 989 0494,https://www.facebook.com/Centrodipma.drlanzilotti/,Centro di PMA Dr. Giuseppe Lanzilotti specialista in ginecologia e ostetricia,https://maps.google.com/?cid=16960340540867348679
italy,Brindisi,Progenia S.r.l.,40.5876992,17.8517506,"Via Cittadella della ricerca, 72100 Brindisi BR, Italy",0831 508553,https://www.progeniacmrl.it/,Progenia CMRL,https://maps.google.com/?cid=4754777721128182828
italy,Brescia,Atheneum s.r.l.,45.5278446,10.2572957,"Borgo Pietro Wuhrer, 25123 Brescia BS, Italy",030 360249,https://www.atheneumsrl.it/,Atheneum S.R.L.,https://maps.google.com/?cid=15418701997847474575
italy,Brescia,"Centro di Fecondazione Medicalmente Assistita - U.O. Ostetricia e Ginecologia - Casa di Cura ""Istituto Clinico Città di Brescia""",45.5538284,10.2271569,"Via Bartolomeo Gualla, 15, 25128 Brescia BS, Italy",030 37101,https://www.grupposandonato.it/strutture/istituto-clinico-citta-di-brescia,Istituto Clinico Città Di Brescia,https://maps.google.com/?cid=13736193159966190290
italy,Montichiari,"Centro di Procreazione Assistita - U. O. Ostetricia e Ginecologia - A.O. ""Spedali Civili"" di Brescia - P.O. di Montichiari",,,,,,,
italy,Brescia,Centro Sanitario S. Giovanni srl,45.5247587,10.2236636,"Via Cremona, 139, 25124 Brescia BS, Italy",030 242 7331,http://www.centrosangiovanni.it/,Centro Sanitario S.Giovanni Srl,https://maps.google.com/?cid=8486446376750025856
italy,Manerbio,Dipartimento di PMA - U.O. Ostetricia e Ginecologia - A.O. di Desenzano del Garda - P.O. di Manerbio,45.3566425,10.1459091,"Lungomella Valsecchi, 2, 25025 Manerbio BS, Italy",030 99291,http://www.asst-garda.it/ospedali/manerbio/,Manerbio Hospital,https://maps.google.com/?cid=5494949606972360106
italy,Esine,Studio e cura della sterilità della coppia - P.O. Vallecamonica - ASL Vallecamonica Sebino,,,,,,,
italy,Brescia,Studio Medico Ginecologico Dott. Luca Fallo,45.5247997,10.2140702,"CAP Tower, Via Aldo Moro, 13, 25124 Brescia BS, Italy",030 245 2138,,Fallo Luca,https://maps.google.com/?cid=14185814672933868742
italy,Bisceglie,MOMO' FertiLIFE,41.2387576,16.5156898,"Str. Cala dell'Arciprete, 2C, 76011 Bisceglie BT, Italy",080 396 2313,http://www.momofertilife.com/,MOMO' fertiLIFE srl,https://maps.google.com/?cid=16892113739943555801
italy,Barletta,PRO ANDROS s.r.l.,41.3195403,16.2841769,"Via Cavour, 22, 76121 Barletta BT, Italy",339 837 3637,http://www.proandros.it/,Pro. Andros,https://maps.google.com/?cid=396959116505934812
italy,Brunico,Centro di medicina della riproduzione umana e crioconservazione gameti - Ospedale di Brunico,,,,,,,
italy,Bressanone,Centro Sterilità - Reparto Ginecologia Ostetricia - Ospedale di Bressanone,46.7243139,11.6478513,"Via Dante, 51, 39042 Bressanone BZ, Italy",0472 812111,http://www.sabes.it/,Ospedale di Bressanone,https://maps.google.com/?cid=1146159481876670626
italy,Bolzano,Donna Salus,46.4932275,11.3616144,"Via del Macello, 30c, 39100 Bolzano BZ, Italy",0471 324034,https://www.donnasalus.it/,Donnasalus,https://maps.google.com/?cid=10045920041311139044
italy,Merano,EuBios - Centri Fivet Prof. Zech,46.6709922,11.1611233,"Via Fossato Molini, 9, 39012 Merano BZ, Italy",0473 270470,https://nextfertilityeubios.it/,Next Fertility Eubios,https://maps.google.com/?cid=3255312795506815503
italy,Merano,Reparto Ginecologia - Ostetricia - Ospedale di Merano,46.6772295,11.1513688,"Via Giacomo Rossini, 5, 39012 Merano BZ, Italy",0473 263333,https://www.asdaa.it/it/home,Ospedale di Merano,https://maps.google.com/?cid=10833030439182142381
italy,Monserrato,"Centro Integrato di Procreazione Medicalmente Assistita (PMA) e Diagnostica Ostetrico-Ginecologica, Blocco Q, Azienda Ospedaliera Universitaria - Policlinico Dullio Casula",,,,,,,
italy,Cagliari,Generalife Cagliari s.r.l.,39.2481381,9.1150307,"Via Edward Jenner, 21, 09121 Cagliari CA, Italy",800 816 969,https://www.generapma.it/cliniche/genera-cagliari/,Genera Cagliari,https://maps.google.com/?cid=5581347867573782094
italy,Cagliari,Servizio Ostetricia e Ginecologia - Diagnosi Prenatale e Preimpianto - Ospedale Regionale Microcitemico di Cagliari,,,,,,,
italy,Campobasso,Eco Center,41.5522417,14.6588291,"Via Conte Rosso, 10, 86100 Campobasso CB, Italy",347 916 0938,,ECOCENTER,https://maps.google.com/?cid=4238846202221566679
italy,Caserta,CARAN s.r.l. - Medicina e Biologia della Riproduzione,41.0824515,14.3314724,"Via Gennaro Tescione, 24, 81100 Caserta CE, Italy",0823 361430,https://www.caran.eu/,Centro Caran,https://maps.google.com/?cid=8439922610944738257
italy,Aversa,Centro Medico Iovino della Puca,40.9770583,14.2125555,"Via Grazia Deledda, 49, 81031 Aversa CE, Italy",081 503 2366,http://www.centromedicoiovinodellapuca.it/,Centro medico Iovino Della Puca,https://maps.google.com/?cid=7271055001754689496
italy,Caserta,Genesis Day Surgery & Scientific Research s.c.a.r.l.,41.0857044,14.3383589,"Via Giuseppe de Falco, 24, 81100 Caserta CE, Italy",0823 325388,http://www.iatropolis.it/,Genesis Day Surgery Caserta,https://maps.google.com/?cid=3496455198065785583
italy,Maddaloni,IATREION s.r.l. - Medicina Polispecialistica,41.0346239,14.4000161,"Via Forche Caudine, 92, 81024 Maddaloni CE, Italy",0823 406633,http://www.iatreion.it/,Clinica Iatreion,https://maps.google.com/?cid=1316710962953338092
italy,Marcianise,UOSD di Fisiopatologia della Riproduzione-P.O. di Marcianise- ASL Caserta,41.0351371,14.2922523,"Piazza Carita, 15, 81025 Marcianise CE, Italy",0823 518470,,Asl marcianise,https://maps.google.com/?cid=3428439934233583217
italy,Chieti,Casa di Cura Spatocco - Centro I.E.M.A. - Istituto Europeo Medicina della Riproduzione Abruzzese,42.3444539,14.1671957,"Via della Liberazione, 65, 66100 Chieti CH, Italy",338 820 6230,https://iemafecondazione.it/,I.E.M.A. Istituto Europeo Medicina della Riproduzione Abruzzese,https://maps.google.com/?cid=12198972348013803325
italy,Ortona,"Centro di Procreazione Medicalmente Assistita - ASL n° 2 Università degli studi ""G. d.Annunzio"" Chieti Pescara - Ospedale Civile ""G. Bernabeo"" di Ortona",42.3499317,14.3891088,"Contrada S. Liberata, 66026 Ortona CH, Italy",085 9171,,Ospedale Gaetano Bernabeo,https://maps.google.com/?cid=3245625555989845741
italy,Vasto,U.O. Medicina della Riproduzione - Ostetricia e Ginecologia - P.O. di Vasto,42.1182804,14.7101902,"Via S. Camillo de Lellis, 66054 Vasto CH, Italy",0873 3081,http://www.info.asl2abruzzo.it/ospedalevasto/,"Ospedale ""San Pio da Pietrelcina""",https://maps.google.com/?cid=2243319746061476626
italy,Racconigi,Centro Medico Racconigese s.a.s.,44.7612651,7.676768,"Via Caduti e Dispersi in Russia, 12, 12035 Racconigi CN, Italy",0172 84645,https://www.centromedicoracconigese.com/,Centro Medico Racconigese,https://maps.google.com/?cid=1017576679245856993
italy,Bra,"Centro PMA - Casa di Cura ""Città di Bra""",44.6962828,7.8587049,"Strada Montenero, 1, 12042 Bra CN, Italy",338 462 2384,http://abraonline.it/,A.B.R.A. s.s. Centro PMA Casa di Cura città di Bra,https://maps.google.com/?cid=10602108716546744395
italy,Fossano,S.S. Fisiopatologia della Riproduzione Umana,44.5519817,7.7214572,"Via S. Giuseppe, 4, 12045 Fossano CN, Italy",0172 370470,https://www.umana.it/?utm_source=gmb&utm_medium=umana&utm_campaign=gmb,Umana S.p.A. | Agenzia per il Lavoro,https://maps.google.com/?cid=12000408770005183969
italy,Cantù,Centro di Fisiopatologia della Riproduzione del P.O. di Cantù - ASST LARIANA,45.7394444,9.14,"Via Domea, 4, 22063 Cantù CO, Italy",031 799111,https://www.asst-lariana.it/v2/whereis/?pr=22&display=0,Ospedale Sant'Antonio Abate di Cantù,https://maps.google.com/?cid=6192216272915477644
italy,Appiano Gentile,LE BETULLE Casa di Cura s.r.l. - Unità di Procreazione Medico Assistita,45.7290329,8.9963517,"Viale Italia, 36, 22070 Appiano Gentile CO, Italy",031 973311,https://www.casadicuralebetulle.it/,LE BETULLE - Casa di Cura Privata,https://maps.google.com/?cid=8428115853420684620
italy,Cremona,Ambulatorio di Fisiopatologia della Riproduzione,45.1377547,10.0414345,"Via Mantova, 127, 26100 Cremona CR, Italy",0372 198 2451,http://www.poliambulatoriodallarosaprati-cremona.it/,Poliambulatorio Dalla Rosa Prati Cremona,https://maps.google.com/?cid=12515587357415237403
italy,Castrovillari,C.B.R. Centro di Biologia della Riproduzione,39.8131052,16.2012187,"Corso Giuseppe Garibaldi, 64, 87012 Castrovillari CS, Italy",0981 26694,,C.B.R. Centro di Biologia della Riproduzione,https://maps.google.com/?cid=1520586718803809662
italy,Cosenza,GENESIS,39.2953309,16.2547168,"Via Piave, 36, 87100 Cosenza CS, Italy",392 990 0246,http://www.genesismobile.it/,Genesis Mobile Calabria,https://maps.google.com/?cid=3612824820958147526
italy,Rende,LIFE LAB - Studio Medico Polispecialistico di Riproduzione e Medicalmente Assistita e Andrologia,39.34185,16.245662,"Palazzo ""PANTACO, Via Giuseppe Verdi, 62, 87036 Rende CS, Italy",0984 180 0860,,Studio Medico Polispecialistico,https://maps.google.com/?cid=5517448526686020759
italy,Cosenza,U.O.S. di Andrologia e Fisiopatologia della Riproduzione - P.O. Ospedale Annunziata di Cosenza,,,,,,,
italy,Catania,"A.O. ""Cannizzaro"" - Centro di PMA",37.5419219,15.11928,"Via Messina, 829, 95126 Catania CT, Italy",095 726 1111,http://www.ospedale-cannizzaro.it/,A.O. Cannizzaro,https://maps.google.com/?cid=15981843118144763990
italy,Catania,Casa di Cura Falcidia srl,37.5284445,15.0869926,"Viale Odorico da Pordenone, 32/34, 95126 Catania CT, Italy",095 580448,https://www.falcidia.it/,Casa di Cura Prof. E. Falcidia,https://maps.google.com/?cid=14626440479090902699
italy,Catania,Centro di Ginecologia e Medicina della Riproduzione GmR srl,37.5288009,15.0950176,"Viale Marco Polo, 11, 95126 Catania CT, Italy",095 336649,http://www.centrogmr.it/,Ginecologia e Medicina della Riproduzione,https://maps.google.com/?cid=15124745742156886034
italy,Catania,Centro di Medicina della Riproduzione e Infertilità (C.M.R.I.) s.r.l.,37.5199644,15.0589773,"Via Fondo Cosentino, 6, 95123 Catania CT, Italy",095 714 2620,http://www.drcarlotorrisi.it/,Centro di Medicina della Riproduzione e Infertilità,https://maps.google.com/?cid=11694425078862866185
italy,Sant'Agata li Battiati,Centro di Procreazione Medicalmente Assistita U.M.R.,37.5464164,15.084129,"Via Leucatia Croce, 95030 Sant'Agata li Battiati CT, Italy",095 419 9997,http://www.umrcatania.it/,U.M.R.,https://maps.google.com/?cid=2568250894502927550
italy,Catania,CRA Centro Riproduzione Assistita s.r.l.,37.5270843,15.088849,"Viale Odorico da Pordenone, 5, 95128 Catania CT, Italy",095 436595,,Cra Center Assisted Reproduction,https://maps.google.com/?cid=1870043566732858361
italy,Lamezia Terme,C.I.S. Medicina della Riproduzione,38.9579432,16.3288602,"Via degli Oleandri, n° 1, 88046 Lamezia Terme CZ, Italy",0968 432530,,Cis Clinical Institute of Sterility,https://maps.google.com/?cid=5611630432897990068
italy,Montauro,"Centro di Medicina della Riproduzione ""Diagnostica Nausicaa s.r.l.""",38.745587,16.5457772,"Via Costa degli Aranci, snc, 88060 Montauro CZ, Italy",0967 577613,http://www.centrosterilitanausicaa.it/,Centro di Medicina della Riproduzione Nausicaa,https://maps.google.com/?cid=2819369661416376546
italy,Tiriolo,Centro di Procreazione Medicalmente Assistita di I livello del Dr. Roberto Noia,38.8850479,16.5977478,"Viale Lucrezia della Valle, 19, 88100 Catanzaro CZ, Italy",,https://www.miodottore.it/strutture/centro-di-pma-urogyn-biotech-centro-di-riproduzione-assistita-infertilita-e-nutrizione/?utm_source=google&utm_medium=gmb&utm_campaign=34156,"Centro di PMA UroGyn BioTech (Centro di Riproduzione assistita, infertilità e nutrizione)",https://maps.google.com/?cid=3438169123443970570
italy,Catanzaro,Servizio di Procreazione Medicalmente Assistita dell' A.O. Pugliese-Ciaccio,,,,,,,
italy,Forlì,Ospedale Morgagni - Pierantoni di Forlì - Servizio di Fisiopatologia della Riproduzione Umana,44.2065048,12.0197209,"Via Carlo Forlanini, 34, 47121 Forlì FC, Italy",0543 731111,https://www.auslromagna.it/luoghi/ospedali/ospedale-morgagni-pierantoni-forli,"Ospedale ""Morgagni - Pierantoni"" di Forlì",https://maps.google.com/?cid=1987731157954286094
italy,Lagosanto,Fisiopatologia della riproduzione umana - Ospedale del Delta,44.7756816,12.1219808,"Via Valle Oppio, 2, 44023 Lagosanto FE, Italy",0533 723111,https://www.ausl.fe.it/amministrazione/ospedali/ospedale-del-delta,Ospedale del Delta,https://maps.google.com/?cid=10920617318750995784
italy,Foggia,"Struttura Semplice Dipartimentale di Fisiopatologia della Riproduzione e Procreazione Medica Assistita c/o Azienda Ospedaliera Universitaria ""Ospedali Riuniti"" di Foggia",,,,,,,
italy,Firenze,Centro Italiano Fertilità e Sessualità s.r.l.,43.7796,11.2520885,"Via della Fortezza, 6, 50129 Firenze FI, Italy",055 470521,,Centro Italiano Fertilita' e Sessualita',https://maps.google.com/?cid=10846964693098391019
italy,Firenze,"Centro Procreazione Assistita ""Demetra""",43.8046484,11.2435766,"Via Giulio Caccini, 18, 50141 Firenze FI, Italy",055 488709,http://www.centrodemetra.com/,Centro Procreazione Assistita Demetra Srl,https://maps.google.com/?cid=18046240388102077127
italy,Firenze,Florence - Centro di Chirurgia Ambulatoriale ed Infertilità,43.7788702,11.2671487,"Viale Giacomo Matteotti, 4, 50132 Firenze FI, Italy",055 423 0620,https://centroflorence.it/,Centro Florence,https://maps.google.com/?cid=15898184283439118347
italy,Firenze,Futura Diagnostica Medica - Procreazione Medicalmente Assistita s.r.l.,43.7800491,11.2601045,"Via Camillo Cavour, 72/74, 50121 Firenze FI, Italy",055 239 8366,http://www.futuradiagnosticamedica.it/,Futura Diagnostica Medica,https://maps.google.com/?cid=17318524342698777390
italy,Empoli,Futura Diagnostica Medica PMA srl 3,43.7800491,11.2601045,"Via Camillo Cavour, 72/74, 50121 Firenze FI, Italy",055 239 8366,http://www.futuradiagnosticamedica.it/,Futura Diagnostica Medica,https://maps.google.com/?cid=17318524342698777390
italy,Firenze,SOD di Procreazione Medicalmente Assistita - Università degli Studi di Firenze - A.O. Careggi,,,,,,,
italy,Frosinone,Centro Medico Life Srl,41.6435412,13.3043624,"Via Armando Fabi, località Aeroporto, 238, 03100 Frosinone FR, Italy",0775 855062,http://www.centromedicolife.it/,Centro Medico Life Srl,https://maps.google.com/?cid=12684877736771570331
italy,Cassino,Centro PMA del Cassinate,41.4951774,13.8300078,"Piazza S. Scolastica, 1, 03043 Cassino FR, Italy",0776 24333,,Laboratorio Chimico Del Cassinate,https://maps.google.com/?cid=16360136089091288071
italy,Sora,Centro S.T.S. s.r.l. - Ambulatorio Fisiopatologia della Riproduzione - Ginecologia ed Endocrinologia,41.7144348,13.6110252,"Via Giuseppe Ferri, 14, 03039 Sora FR, Italy",0776 824368,http://www.centrosts.com/,Centro S.T.S.,https://maps.google.com/?cid=10163119768084955849
italy,Lavagna,"Centro Ambulatoriale di Procreazione Medicalmente Assistita - Divisione Ostetricia e Ginecologia - Ospedale ""Riboli"" di Lavagna - ASL 4 ""Chiavarese""",,,,,,,
italy,Genova,Medicina della Riproduzione - Ospedale Evangelico Internazionale,44.4135077,8.942985,"Corso Solferino, 1, 16122 Genova GE, Italy",010 55221,http://www.ospedale-evangelico.it/,Ospedale Evangelico Internazionale,https://maps.google.com/?cid=1459625254151044173
italy,Genova,Tecnobios Procreazione srl,44.3996659,8.9492902,"C.so Torino, 87/C/R, 16129 Genova GE, Italy",010 591184,,9.Baby Dr.ssa Luiza Abbamonte Ginecologa,https://maps.google.com/?cid=18164716833910633765
italy,Genova,UOS Fisiopatologia della Riproduzione Umana IRCCS Policlinico Ospedale San Martino Genova,,,,,,,
italy,Grosseto,Medicina della Riproduzione A.USL9 - Grosseto,,,,,,,
italy,Venafro,Centro PMA NASCERE,41.4795076,14.0482687,"Via Giotto di Bondone, 37, 86079 Venafro IS, Italy",0865 904737,http://www.centropmanascere.it/,NASCERE CENTRO PMA - Centro Fecondazione Assistita,https://maps.google.com/?cid=5050515016829755312
italy,Crotone,Laboratorio Volante srl,39.082238,17.121505,"Via Mario Nicoletta, 166/168, 88900 Crotone KR, Italy",0962 29975,http://www.laboratoriovolante.it/,Laboratory Analysis Volante S.r.l,https://maps.google.com/?cid=14292787552758867343
italy,Barzanò,CAB Polidiagnostico - Ambulatorio di Medicina della Riproduzione,45.7372969,9.3154965,"Via dei Mille, 14, 23891 Barzanò LC, Italy",039 921 0202,http://www.cabservizi.it/,Cab Servizi - Medicina del Lavoro,https://maps.google.com/?cid=14071751350029555087
italy,Lecce,"Casa di Cura ""Prof. Petrucciani"" - Centro di Procreazione Medicalmente Assistita",40.3556374,18.1968172,"Viale Aldo Moro, 28, 73100 Lecce LE, Italy",0832 448333,https://www.casadicurapetrucciani.com/?utm_source=googlemybusiness&utm_medium=organic,Casa di Cura Prof.Petrucciani,https://maps.google.com/?cid=1507131744796726718
italy,Muro Leccese,PRODIA,40.0964828,18.3380581,"Via degli Emigranti, 51, 73036 Muro Leccese LE, Italy",0836 192 5390,https://pro-dia.it/,Prodìa Procreazione e diagnostica,https://maps.google.com/?cid=3956667214828088699
italy,Nardò,TECNOMED - Centro Medico Biologico,40.180012,18.0340074,"Via XX Settembre, 14, 73048 Nardò LE, Italy",0833 567547,http://www.centrotecnomed.it/,TECNOMED Medical Center Organic,https://maps.google.com/?cid=16930653169360785916
italy,Lecce,"U.O.S.D. Fisiopatologia della Riproduzione e Centro PMA - P.O. ""V. Fazzi""",40.3521734,18.1732761,"Via Vito Fazzi, 73100 Lecce LE, Italy",,,Via Vito Fazzi,"https://maps.google.com/?q=Via+Vito+Fazzi,+73100+Lecce+LE,+Italy&ftid=0x13442ee3e9d4ac85:0x92be90036177b977"
italy,Livorno,CRPO - Medicina della Riproduzione,43.5638331,10.3452424,"Via Giovanni March, 20, 57121 Livorno LI, Italy",0586 444034,http://www.crpo.eu/,CRPO - Centro Ricerca e Prevenzione - Centro Medico polispecialistico,https://maps.google.com/?cid=10101860106917351624
italy,Terracina,Centro Diagnostico Medico Anxur s.r.l.,41.2881858,13.2508157,"Via Lungolinea Pio VI, 107, 04019 Terracina LT, Italy",0773 724025,http://www.cdmanxur.it/,Medical Diagnostic Center Anxur,https://maps.google.com/?cid=11969638690109986564
italy,Latina,Laboratorio Diagnostica Medica Srl,41.4460918,12.8788227,"Largo F. Cavalli, 4, 04100 Latina LT, Italy",0773 624958,,Laboratorio Diagnostica Medica S.R.L.,https://maps.google.com/?cid=16414810538721693337
italy,Latina,Ospedale Santa Maria Goretti - Dipartimento Materno lnfantile - UOC Ostetricla e Ginecologla DEA ll - UOS Fisiopatologia della Riproduzione (PMA),,,,,,,
italy,Viareggio,"Centro di Riproduzione Assistita ""Ettore Barale"" - U.O.S. Centro Procreazione Medicalmente Assistita - Ospedale Versilia - Azienda USL Toscana NordOvest",,,,,,,
italy,Barga,U.O. Ostetricia e Ginecologia - Ospedale S. Francesco di Barga - USL 2,44.0705038,10.4801477,"Via dei Frati, 32, 55051 Barga LU, Italy",0583 7290,https://www.uslnordovest.toscana.it/ospedali/barga-ospedale-san-francesco,Ospedale San Francesco,https://maps.google.com/?cid=16407046394456139834
italy,Monza,Centro di Medicina della Riproduzione BIOGENESI - Istituti Clinici Zucchi,45.585917,9.272353,"Via Bartolomeo Zucchi, 24, 20900 Monza MB, Italy",039 83831,https://www.grupposandonato.it/strutture/istituti-clinici-zucchi-monza,Zucchi Monza Clinical Institute,https://maps.google.com/?cid=17618908808302012632
italy,Monza,Centro Medico Dr.ssa Nadia Meroni,45.5863424,9.2852969,"Via Enrico da Monza, 28, 20900 Monza MB, Italy",039 232 8103,http://www.nadiameroni.it/contatti/,Meroni D.Ssa Nadia,https://maps.google.com/?cid=16917233196401062135
italy,Monza,Centro Sofia s.r.l. - Centro Medico Polispecialistico,45.5906151,9.2673971,"Via Alessandro Volta, 44, 20900 Monza MB, Italy",039 390 0664,http://www.centrosofia.it/,Centro Sofia,https://maps.google.com/?cid=10467966663530234972
italy,Carate Brianza,"Centro Sterilità - U.O. Ostetricia e Ginecologia - Ospedale Civile di Vimercate - P.O. ""Vittorio Emanuele III"" di Carate Brianza",,,,,,,
italy,Monza,Studio Medico Dott. Fadini Rubens,45.5864141,9.270979,"Via Bartolomeo Zucchi, 40, 20900 Monza MB, Italy",,,Dr. Rubens Fadini,https://maps.google.com/?cid=11462082380250712545
italy,Messina,Azienda Ospedaliera Papardo - Centro PMA,38.2638574,15.5965147,"Contrada Papardo, 98158 Messina ME, Italy",090 3991,https://www.aopapardo.it/,Azienda Ospedaliera Papardo,https://maps.google.com/?cid=1285082498046684040
italy,Torregrotta,Centro Polispecialistico Rizzo s.r.l.,38.2098278,15.3438712,"Via Dante Alighieri, 11, 98043 Torregrotta ME, Italy",090 991 2516,http://centropolispecialisticorizzo.com/,Center Polispecialistico Rizzo srl,https://maps.google.com/?cid=15851689602395582272
italy,Messina,Centro Riproduzione Umana C.R.U. srl,38.17957,15.55165,"Via Trento, 20, 98123 Messina ME, Italy",090 695570,https://www.centroriproduzioneumana.it/,Centro Riproduzione Umana Messina Reggio Calabria,https://maps.google.com/?cid=5480509066663299245
italy,Milano,Altamedica,45.4625453,9.1926817,"Largo Ildefonso Schuster, 1, 20122 Milano MI, Italy",02 8699 6054,https://www.altamedicamilano.it/,Altamedica Milano,https://maps.google.com/?cid=10153172635249828569
italy,Milano,Casa di Cura IGEA - Servizio Procreazione Medicalmente Assistita,45.4633431,9.2197045,"Via Giuseppe Piolti de' Bianchi, 3, 20129 Milano MI, Italy",02 701421,http://www.casadicuraigea.it/,Poliambulatorio Casa di Cura Igea,https://maps.google.com/?cid=8299112395906524570
italy,Milano,"Centro di Fecondazione Assistita - Casa di Cura ""La Madonnina S.P.A.""",45.4542407,9.1948124,"Via Quadronno, 29, 20122 Milano MI, Italy",800 688 599,https://www.eugin.it/,Centro di PMA Madonnina Milano - Eugin,https://maps.google.com/?cid=6824700833400191792
italy,Milano,Centro di Procreazione Medico Assistita - Istituto Clinico Città Studi SpA,45.4852128,9.2252411,"Via Niccolò Jommelli, 17, 20131 Milano MI, Italy",02 23931,http://www.ic-cittastudi.it/,Istituto Clinico Città Studi,https://maps.google.com/?cid=13939627871923971689
italy,Milano,Centro di Riproduzione Assitita - U.O. Ostetricia e Ginecologia - A.O. Luigi Sacco - P.O. Luigi Sacco,,,,,,,
italy,Milano,Centro ECOMED - Centro C.E.C.O.S,,,,,,,
italy,Milano,Centro Medico Sterilità Monterosa s.r.l.,45.470827,9.154501,"Via Monte Rosa, 3, 20149 Milano MI, Italy",02 4800 1155,http://www.centromedicomonterosa.it/,Centro Medico Monterosa,https://maps.google.com/?cid=7406260413376045749
italy,Milano,Centro Scienze della Natalità - I.R.C.C.S. Ospedale San Raffaele,45.5068815,9.264759,"Via Olgettina, 60, 20132 Milano MI, Italy",02 26431,https://www.hsr.it/,San Raffaele Hospital,https://maps.google.com/?cid=14776521095652369662
italy,Milano,Centro Studi e Trattamento per Disturbi della Fertilità - U.O. Ostetricia e Ginecologia - U.O. Ospedale Niguarda Ca Granda,,,,,,,
italy,Paderno Dugnano,Clinica San Carlo - Casa di Cura Privata Polispecialistica Spa U.O. Ostetricia e Ginecologia - Procreazione Medicalmente Assistita,45.5733067,9.1553557,"Via Ospedale, 21, 20037 Paderno Dugnano MI, Italy",02 990381,http://www.clinicasancarlo.it/,Clinica San Carlo - Casa di Cura Polispecialistica,https://maps.google.com/?cid=6125743021413318088
italy,Milano,ESMAN - Medical Consulting s.r.l.,45.4527397,9.1953415,"Via Carlo Crivelli, 20, 20122 Milano MI, Italy",02 5832 0182,http://www.studiosemprini.com/,Esman Medical Consulting Srl,https://maps.google.com/?cid=14321409449718204043
italy,Milano,"ESPA - Centro Endocrinologia, Sterilità e PMA - Ospedale M. Melloni - A.O. Fatebenefratelli e Oftalmico - U.O. Ostretricia e Ginecologia",,,,,,,
italy,Milano,Fondazione Ca' Granda Ospedale Maggiore Policlinico U.O. Semplice Dipartimentale (UOSD) - PMA,45.4588417,9.1949702,"Via Francesco Sforza, 35, 20122 Milano MI, Italy",02 55031,http://www.policlinico.mi.it/,Policlinico of Milan,https://maps.google.com/?cid=11720108595656436849
italy,Milano,GeneraLife Milano,45.4649409,9.1992264,"Via Cerva, 25, 20122 Milano MI, Italy",800 816 969,https://www.generapma.it/cliniche/genera-milano/,Genera Milano,https://maps.google.com/?cid=11776047276067892099
italy,Milano,GINECEA srl,45.4792095,9.1885263,"Via Solferino, 35, 20121 Milano MI, Italy",02 6269 4750,http://www.ginecea.it/,Ginecea Studio Medico,https://maps.google.com/?cid=11254033209686985996
italy,Rozzano,IRCCS Istituto Clinico Humanitas - Dipartimento di Ginecologia e Medicina della Riproduzione,45.3739094,9.1656634,"Via Alessandro Manzoni, 56, 20089 Rozzano MI, Italy",02 82241,https://www.humanitas.it/,Humanitas Research Hospital,https://maps.google.com/?cid=13873113975734074336
italy,Milano,IVI Milano,45.4683362,9.1630064,"Via Guido D'Arezzo, 4, 20145 Milano MI, Italy",02 8736 8344,https://ivitalia.it/centri/milano/?utm_source=google-mb&utm_medium=organic&utm_campaign=ivi_it_clinica-milano_conversion,Studio Medico Ginecologico IVI Milano s.r.l.,https://maps.google.com/?cid=8762966959083587457
italy,Milano,Milano Fertility Clinic S.r.l.,45.4560183,9.1835278,"Via Santa Croce, 8, 20122 Milano MI, Italy",,https://milanofertilityclinic.it/,Milano Fertility Clinic,https://maps.google.com/?cid=12550150893648469659
italy,Milano,"Procreazione Medicalmente Assistita - PMA - A. O. ""San Paolo"" di Milano",45.4542407,9.1948124,"Via Quadronno, 29, 20122 Milano MI, Italy",800 688 599,https://www.eugin.it/,Centro di PMA Madonnina Milano - Eugin,https://maps.google.com/?cid=6824700833400191792
italy,Milano,SOGEME s.r.l. - Istituto Medico Milanese,45.4610734,9.203079,"Via Podgora, 11, 20122 Milano MI, Italy",02 546 9570,http://istitutomedicomilanese.it/,ISTITUTO MEDICO MILANESE,https://maps.google.com/?cid=8706763778211335993
italy,Milano,Tree of Life,45.5206706,9.1071819,"Piazzale EXPO 2015, 20157, 20157 Milano MI, Italy",,,Tree Of Life,https://maps.google.com/?cid=15611781497865408143
italy,Mantova,Centro di Medicina della Riproduzione ed Endocrinologia - U.O. Ostetricia e Ginecologia - A.O. Carlo Poma,,,,,,,
italy,Modena,Centro di Medicina della Riproduzione - Struttura Semplice di Procreazione Medicalmente Assistita- PMA U.O.C. Ginecologia e Ostetricia Dipartimento Materno Infantile - Azienda Ospedaliero-Universitaria di Modena,,,,,,,
italy,Carpi,Centro di Sterilità di Coppia - Ospedale di Carpi,44.7862892,10.8775778,"Via Guido Molinari, 2, 41012 Carpi MO, Italy",059 659111,http://www.ausl.mo.it/flex/FixedPages/Common/luogo.php/L/IT/id/3627,Ospedale di Carpi,https://maps.google.com/?cid=5090923452555089279
italy,Modena,Clinica Eugin,44.6491626,10.8970503,"188F, Via L. Nobili, 41126 Modena MO, Italy",800 688 595,https://www.eugin.it/,Clinical Eugin Modena,https://maps.google.com/?cid=14171066654820702663
italy,Matera,Centro di Fisiopatologia della Riproduzione - Dipartimento Funzionale di Ostetricia e Ginecologia - Ospedale Madonna S.S. delle Grazie - ASL n.4 di Matera,,,,,,,
italy,San Gennaro Vesuviano,"Casa di Cura ""La Madonnina"" s.r.l.",40.8601104,14.5274853,"Via Roma, 29, 80040 San Gennaro Vesuviano NA, Italy",081 528 7611,http://www.casadicuralamadonnina.it/,Casa di Cura La Madonnina,https://maps.google.com/?cid=7093068710745897244
italy,Napoli,Centro Chemis Iaccarino,40.8273791,14.2201482,"V. Francesco Caracciolo, 2, 80122 Napoli NA, Italy",081 240 4308,,Centro Chemis Iaccarino,https://maps.google.com/?cid=5233331603729400410
italy,Napoli,Centro di PMA - Clinica Mediterranea,40.827013,14.2189592,"Via Orazio, 2, 80122 Napoli NA, Italy",081 725 9222,http://www.clinicamediterranea.it/,Clinica Mediterranea - Ospedale e Centro Diagnostico,https://maps.google.com/?cid=16161037933813396028
italy,Pozzuoli,Centro di PMA - P.O. Santa Maria delle Grazie di Pozzuoli - ASL NA2 nord,40.8489041,14.0733011,"Via Domiziana, 80078 Località La Schiana, Pozzuoli NA, Italy",081 855 2111,https://www.aslnapoli2nord.it/index.php/it/strutture/presidi-ospedalieri/santa-maria-delle-grazie,"Presidio Ospedaliero ""S. Maria Delle Grazie""",https://maps.google.com/?cid=165040833226803321
italy,Napoli,Centro di PMA Dott. Sannino Ferdinado,40.8556352,14.3256655,"Via Viscardi, 47, 80147 Napoli NA, Italy",081 561 1016,,Sannino Ferdinando,https://maps.google.com/?cid=5740196857928664151
italy,Castellammare di Stabia,Centro di PMA per la Diagnosi e Terapia dell'Infertilità di Coppia - Dott. Sosa Fernandez,40.6966931,14.4895852,"Viale Puglia, 33, 80053 Castellammare di Stabia NA, Italy",081 870 7081,,Centro Pma Dott. Sosa,https://maps.google.com/?cid=15052261815597781888
italy,Napoli,Centro di Sterilità - Az. Univ. Policlinico - Università degli Studi di Napoli Federico II,40.8682272,14.2189266,"Via Sergio Pansini, 5, 80131 Napoli NA, Italy",081 746 2941,,Sterilità e Infertilità di Coppia - AOU Federico II,https://maps.google.com/?cid=1154653356443118988
italy,San Giorgio a Cremano,"Centro Fecondazione Assistita ""Andrea Grimaldi""",40.8313551,14.3319729,"Via Guglielmo Marconi, 4, 80046 San Giorgio a Cremano NA, Italy",081 020 7111,http://www.andreagrimaldi.com/,Casa di Cura 'Andrea Grimaldi',https://maps.google.com/?cid=933107776543814575
italy,Napoli,"Centro Medico ""Canero""",40.8880399,14.2502112,"Via Miano, 131, 80145 Napoli NA, Italy",081 543 4438,https://www.riccardocanero.it/,Fisiatra Dr Riccardo Canero,https://maps.google.com/?cid=6568637785453162924
italy,Napoli,Centro per lo Studio della Coppia Infertile,40.8350745,14.2140058,"Via Torquato Tasso, 480, 80123 Napoli NA, Italy",081 641689,https://www.centrofecondazioneassistita.com/,CFA Napoli - Centro Fecondazione Assistita,https://maps.google.com/?cid=1464931232890648745
italy,Giugliano in Campania,Clinic Center HERA - Centro HERA srl,40.9394013,14.2037897,"Via Santa Caterina da Siena, 36, 80014 Giugliano in Campania NA, Italy",081 506 7919,http://www.clinicahera.it/,Clinica HERA,https://maps.google.com/?cid=5853804976045532920
italy,Napoli,Genera Napoli S.r.l.,40.8368549,14.2193478,"Viale Maria Cristina di Savoia, 41, 80122 Napoli NA, Italy",800 816 969,https://www.generapma.it/cliniche/genera-napoli/,Genera Napoli,https://maps.google.com/?cid=17717912151264813041
italy,Napoli,Global life srl - Centro Fecondazione Assistita,40.8350745,14.2140058,"Via Torquato Tasso, 480, 80123 Napoli NA, Italy",081 641689,https://www.centrofecondazioneassistita.com/,CFA Napoli - Centro Fecondazione Assistita,https://maps.google.com/?cid=1464931232890648745
italy,Gragnano,Gruppo Omnia Salute Stp Srl,40.6902768,14.5182309,"Via Roma, 141/139, 80054 Gragnano NA, Italy",,,OMNIA SALUTE GRAGNANO,https://maps.google.com/?cid=6057233374353201181
italy,Pompei,MEDICA FUTURA srl,40.739927,14.4829523,"S.da Statale 145, n° 24, 80045 Pompei NA, Italy",081 862 8137,http://www.centromedicafutura.it/,Centro Polispecialistico Medica Futura,https://maps.google.com/?cid=12772817460620339388
italy,Napoli,Medicina della Riproduzione P.O. San Paolo,40.8271013,14.182318,"Via Terracina, 219, 80125 Napoli NA, Italy",800 278 330,http://www.aslnapoli1centro.it/,Ospedale San Paolo Asl Napoli 1,https://maps.google.com/?cid=13576137988754121061
italy,Napoli,Megaride Fertility Network - Casa di cura Villa Angela,40.8206159,14.2082966,"Via Alessandro Manzoni, 141/C, 80123 Napoli NA, Italy",081 246 1911,,Casa di Cura Villa Angela - Convenzionato S.S.N.R.,https://maps.google.com/?cid=16805269990436237007
italy,Napoli,O.P.C. - Analisi Chimiche e Cliniche s.r.l.,40.836006,14.221208,"C.so Vittorio Emanuele, 656, 80121 Napoli NA, Italy",081 761 1070,,Opc Srl,https://maps.google.com/?cid=4014682507538449101
italy,Napoli,P.M.A s.r.l,40.9466891,14.2174764,"Via Plutone, 6, 80029 Sant'Antimo NA, Italy",081 395 2814,https://www.salute.gov.it/portale/fertility/dettaglioContenutiFertility.jsp?lingua=italiano&id=4570&area=fertilita&menu=medicina,PMA S.r.l.,https://maps.google.com/?cid=3295550858988649540
italy,Napoli,Prima Vita,40.8492586,14.2299222,"Via Tino di Camaino, 6, 80128 Napoli NA, Italy",081 556 9922,https://www.miodottore.it/maurizio-muzi/ginecologo/napoli?utm_source=google&utm_medium=gmb&utm_campaign=63270,Centro per l'infertilità e fecondazione assistita del Dr. Maurizio Muzi,https://maps.google.com/?cid=1934586538147520315
italy,Napoli,"Università degli studi Luigi Vanvitelli - UOC Ginecologia, Ostetricia e Fisiopatologia della Riproduzione",40.8682466,14.2191719,"Via Sergio Pansini, 5, 80131 Napoli NA, Italy",,,"Ginecologia, Ostetricia e Fisiopatologia della Riproduzione Umana - AOU Federico II",https://maps.google.com/?cid=5040097554079907194
italy,Acerra,Villa dei Fiori s.r.l.,40.935907,14.367556,"223 (ex 157, Corso Italia, 80011 Acerra NA, Italy",081 319 0111,,Casa di Cura Privata Villa dei Fiori,https://maps.google.com/?cid=17652321337100363607
italy,Napoli,Vis Procreandi Srl,40.8574535,14.2834184,"Via Giovanni Porzio, Centro Dirzionale di, VI piano, 4/Isolato C2 scala A, 80143 Napoli NA, Italy",081 633 1229,https://visprocreandi.it/,Vis Procreandi - Fertility Center,https://maps.google.com/?cid=3709601173667161847
italy,Castellammare di Stabia,VITA - U.O. Ostetricia e Ginecologia - P.O. Castellammare di Stabia,40.7020413,14.4894991,"Viale Europa, 283, 80053 Castellammare di Stabia NA, Italy",081 872 9231,http://www.aslna3sud.it/,UOC Ginecologia ed Ostetricia,https://maps.google.com/?cid=15107263834386183216
italy,Novara,Centro Medicina della Riproduzione - Dott.ssa Silvana Gippone,45.4404258,8.6236814,"Via Monte San Gabriele, 2, 28100 Novara NO, Italy",0321 397316,https://www.studiomedicogippone.com/,Centro di Medicina della Riproduzione Gippone Dott.ssa Silvana,https://maps.google.com/?cid=8396851122435787090
italy,Novara,Città di Novara,45.4467749,8.6168696,"28100 Novara, Province of Novara, Italy",,,Novara,"https://maps.google.com/?q=28100+Novara,+Province+of+Novara,+Italy&ftid=0x47865a204242336d:0x4d210e35fa2980f0"
italy,Novara,Provita,45.4347616,8.602989,"Via Fiume, 13, 28100 Novara NO, Italy",0321 182 0701,http://www.centroprovita.it/,Centro ProVita,https://maps.google.com/?cid=2411701759270844983
italy,Galliate,Struttura Semplice Procreazione Medicalmente Assistita c/o Sede di Galliate,,,,,,,
italy,Palermo,A.M.B.R.A. Associazione Medici e Biologi per la Riproduzione Assistita,38.1211966,13.3432591,"Viale Regina Margherita, 5, 90138 Palermo PA, Italy",091 682 6454,https://www.studioambra.org/,SEDE OPERATIVA Centro di PMA - A.M.B.R.A Associazione Medici e Biologi per la Riproduzione Assistita Palermo,https://maps.google.com/?cid=7514512535024666568
italy,Palermo,Ambulatorio di Ostetricia e Ginecologia del Dott. Giovanni Alaimo,38.1336784,13.3433882,"Via N. Morello, 38, 90144 Palermo PA, Italy",375 623 6494,https://medicisicilia.it/doctor/173-dott-luigi-alaimo/,Dott. Luigi Alaimo Specialista in Ostetricia e Ginecologia,https://maps.google.com/?cid=10992284848620391009
italy,Palermo,Ambulatorio di Ostetricia e Ginecologia Dott. Andrea Biondo,38.1293413,13.3511304,"Via XX Settembre, 69, 90141 Palermo PA, Italy",091 306762,http://www.andreabiondo.it/,Dottore Andrea Biondo - Ginecologo,https://maps.google.com/?cid=8857913391940583287
italy,Palermo,Centro Andros s.r.l.,38.148361,13.3361367,"Via Ausonia, 43/45, 90144 Palermo PA, Italy",091 678 5511,http://www.clinicaandros.it/,Andros Clinica Day Surgery | Medicina della riproduzione,https://maps.google.com/?cid=13527834608586767422
italy,Palermo,Centro di Biologia della Riproduzione s.r.l. (C.B.R. s.r.l.),38.122823,13.355129,"Via Valerio Villareale, 54, 90141 Palermo PA, Italy",091 323300,http://www.cbrpalermo.it/,CBR Centro Di Biologia Della Riproduzione,https://maps.google.com/?cid=12644063295844831231
italy,Palermo,Centro Genesy s.r.l.,38.1446863,13.34296,"Via della Libertà, 203/b, 90144 Palermo PA, Italy",091 309380,http://centrogenesi.com/,CENTRO GENESI,https://maps.google.com/?cid=7355186887639358837
italy,Palermo,Centro Interaziendale di PMA - P.O. Cervello c/o A.O. Villa Sofia Cervello,,,,,,,
italy,Palermo,Centro Medico San Michele s.r.l.,38.1336784,13.3433882,"Via N. Morello, 38, 90144 Palermo PA, Italy",091 345811,,Centro Medico San Michele Srl,https://maps.google.com/?cid=14677162391958834151
italy,Piacenza,Prometeo - Medical & Genetics,45.0433459,9.7048753,"Via Orazio Camia, 7, 29122 Piacenza PC, Italy",0523 353706,https://www.prometeopma.it/,Prometeo Medical & Genetics,https://maps.google.com/?cid=13608197286449913623
italy,Padova,Biotech PMA srl,45.4125359,11.8834624,"Galleria Trieste, 2, 35121 Padova PD, Italy",049 821 9588,http://www.biotechpma.it/,Biotech Pma Srl,https://maps.google.com/?cid=1174904947182118483
italy,Cittadella,Centro di Fecondazione Medicalmente Assistita di Cittadella - U.O.A. Ostetricia e Ginecologia - Dipartimento Materno Infantile - P.O. di Cittadella,45.6472643,11.7883354,"Via Pilastroni, 35013 Cittadella PD, Italy",049 942 4111,https://www.aulss6.veneto.it/index.cfm?action=ospedali.cittadella,Cittadella Hospital - ULSS 6 Euganea,https://maps.google.com/?cid=16303716410506106387
italy,Padova,Diagnostica Riviera srl,45.4262545,11.9453812,"Via Bravi, 49, 35129 Ponte di Brenta PD, Italy",049 622 5200,http://www.diagnosticariviera.it/,Diagnostica Riviera S.r.l. - Ponte di Brenta,https://maps.google.com/?cid=8605304705883612636
italy,Albignasego,Elysium MED srl,45.355896,11.8691978,"Via Roma, 60/A, 35020 Albignasego PD, Italy",349 782 8241,http://www.elysiummed.net/,Elysium Med Centro Medico Multispecialistico,https://maps.google.com/?cid=5431058231644151575
italy,Padova,Studio Gemma - Triveneta Iniziative S.r.l.,45.4035254,11.9121657,"Via Giovanni Boccaccio, 104/C, 35128 Padova PD, Italy",049 880 4140,http://www.studiogemma.org/,Studio Gemma Fecondazione Assistita,https://maps.google.com/?cid=9651027366492315614
italy,Padova,Studio Medico dott. Andrea Garolla,45.3993836,11.8916915,"Via Nazareth, 2, 35128 Padova PD, Italy",049 851888,http://www.studiogarolla.com/,Studio Prof. Garolla Andrea,https://maps.google.com/?cid=8908975660244609679
italy,Padova,Unità Operativa Semplice Procreazione Medicalmente Assistita - Università - Azienda di Padova,,,,,,,
italy,Città Sant'Angelo,Casa di Cura Villa Serena del Dott. L. Petruzzi s.r.l.,42.5193343,14.113169,"Via Leonardo Petruzzi, 42, 65013 Città Sant'Angelo PE, Italy",085 95901,http://www.villaserena.it/,Villa Serena del Dr. Leonardo Petruzzi,https://maps.google.com/?cid=3308348425769878509
italy,Umbertide,Ambulatorio Chirurgico di Ginecologia ed Ostetricia - Genera Umbria s.r.l.,43.3104897,12.3298371,"Via Papa Paolo VI, 2/A, 06019 Umbertide PG, Italy",800 816 969,https://www.generapma.it/cliniche/genera-umbria/,GENERA Umbria,https://maps.google.com/?cid=11839912558851269246
italy,Todi,Centro di Procreazione Medicalmente Assistita Clinica Ostetrica e Ginecologica Azienda Ospedaliera di Perugia Ospedale della Media Valle del Tevere - Pantalla,42.8778874,12.4035528,"Via del Buda, 06059 Pantalla, Todi PG, Italy",075 888 0611,,Hospital Media Valle Del Tevere,https://maps.google.com/?cid=15886875977099297647
italy,Pisa,Centro Medico Esculapio,43.7235839,10.3920428,"Via Giovanni Battista Niccolini, 12, 56122 Pisa PI, Italy",050 830527,https://www.esculapiopisa.com/,Centro Medico Chirurgico Esculapio,https://maps.google.com/?cid=3695474010508575432
italy,Ponsacco,Centro PMA Valdera,43.6262734,10.6172149,"Viale Italia, 3, 56038 Ponsacco PI, Italy",0587 733223,http://pmavaldera.it/,CENTRO PMA VALDERA SRL,https://maps.google.com/?cid=12751135249825080089
italy,Pisa,Centro Procreazione Assistita Ce.S.Co,43.718957,10.3929838,"Via Nicola Pisano, 56, 56126 Pisa PI, Italy",338 264 4488,https://www.procreazioneeprogresso.com/,Centro Procreazione Assistita Dott. De Ruggiero Alessandro,https://maps.google.com/?cid=8733705373975763945
italy,Pisa,"Fertility IVF Unità ""Pina de Luca"" c/o Casa di Cura San Rossore",43.7244944,10.3755819,"Viale delle Cascine, 152 F, 56122 Pisa PI, Italy",050 586429,https://www.casadicurasanrossore.it/diagnosi-e-cura/specialita/procreazione-medicalmente-assistita/,Casa di Cura Privata San Rossore Fertility&IVF Unit “Pina De Luca”,https://maps.google.com/?cid=5801680143277740183
italy,Pisa,Percorso Infertilità e Procreazione medicalmente assistita. Azienda Ospedaliero Universitaria Pisana,43.704163,10.441387,"Edificio 31, 56124 Pisa PI, Italy",050 996065,http://www.ao-pisa.toscana.it/index.php?option=com_content&view=article&id=3548%3Auo-anestesia-e-rianimazione-6&catid=409&Itemid=54&showall=1,UO Anestesia e Rianimazione Azienda Ospedaliero Universitaria Pisana,https://maps.google.com/?cid=13918750393915121474
italy,Pordenone,Casa di Cura Policlinico San Giorgio,45.946769,12.6602358,"Via Agostino Gemelli, 10, 33170 Pordenone PN, Italy",0434 519111,http://www.clinicasangiorgio.it/,"Nursing Home ""SAN GIORGIO""",https://maps.google.com/?cid=14653907782396289228
italy,Sacile,SSD Procreazione Medicalmente Assistita - Presidio Ospedaliero per la Salute - Sacile PN- ASFO - Friuli Occidentale,45.9559105,12.5001924,"Via Ettoreo, 4, 33077 Sacile PN, Italy",0434 736111,,Presidio Ospedaliero per la Salute di Sacile (AS FO),https://maps.google.com/?cid=6018473505081208338
italy,Parma,Centro Medico Spallanzani - Express Diagnostic Parma s.r.l.,44.802714,10.339374,"Viale Tanara Faustino, 20/b, 43121 Parma PR, Italy",0521 287178,https://www.expressdiagnostic.it/parma/,Spallanzani Medical Center,https://maps.google.com/?cid=17134654091776471630
italy,Fidenza,Centro Procreazione Medicalmente Assistita (CPMA) - P.O. di Fidenza - S. Secondo -AUSL di Parma,,,,,,,
italy,Pesaro,Centro di Medicina della Riproduzione e Tecniche di Fecondazione Assistita - UOC Ostetricia e Ginecologia - Az. Osp. Ospedali Riuniti Marche NORD,,,,,,,
italy,Pesaro,"Studio Medico ""Santa Caterina""",43.9087662,12.9161927,"Piazzale Giacomo Matteotti, 22, 61121 Pesaro PU, Italy",0721 370625,http://www.studiomedico-santacaterina.it/,Studio Medico Santa Caterina,https://maps.google.com/?cid=16903064061072498039
italy,Pavia,IRCCS Policlinico San Matteo di Pavia - 1 - Clinica Ostetricia e Ginecologia - Centro Procreazione Medicalmente Assistita,,,,,,,
italy,Pavia,ProVita Medical Center di AFMM Srl,45.1946735,9.1540617,"Via Indipendenza, 11, 27100 Pavia PV, Italy",0382 185 0367,https://www.paviamedicalcenter.it/,Pavia Medical Center,https://maps.google.com/?cid=1848609248187411571
italy,Potenza,"Azienda Ospedaliera Regionale ""San Carlo"" - Dipartimento della donna e del bambino - U.O.C. Ostetricia e Ginecologia - Procreazione Medicalmente Assistita",,,,,,,
italy,Lugo,ARTeBIOS,44.4250375,11.9051645,"Via Vincenzo Giardini, 11, 48022 Lugo RA, Italy",0545 20113,https://ambulatoridemetra.it/,Demetra ARTeBIOS - Poliambulatorio Medico Chirurgico e Centro di Procreazione Medicalmente Assistita,https://maps.google.com/?cid=14431696914056484371
italy,Lugo,Servizio di Fisiopatologia della Riproduzione Umana - AUSL della Romagna P.O. di Lugo,44.4174068,11.9183793,"Viale Masi, 8, 48022 Lugo RA, Italy",0545 214111,https://www.auslromagna.it/,AUSL Ravenna,https://maps.google.com/?cid=4002387007289021441
italy,Gioia Tauro,Gatjc - Gioia Tauro,38.4274602,15.9049108,"Via Ugo Foscolo, 53, 89013 Gioia Tauro RC, Italy",0966 56123,https://www.gatjc.com/,GATJC - Medically Assisted Procreation,https://maps.google.com/?cid=7703817867749592913
italy,Reggio nell'Emilia,Centro Palmer S.r.l.,44.7069237,10.6161404,"Via Gian Battista Isacchi, 8, 42124 Reggio Emilia RE, Italy",0522 792400,http://www.centropalmer.it/,Palmer Center Srl,https://maps.google.com/?cid=16145746694545882259
italy,Reggio nell'Emilia,"Centro per la Diagnosi e la Terapia della Sterilità Involontaria di Coppia ""P-Bertocchi"" - Arcispedale S. Maria Nuova - AUSL di Reggio Emilia",44.7129724,10.6513183,"Via Errico Petrella, 1/a, 42122 Reggio nell'Emilia RE, Italy",0522 339501,,Mental Health Center,https://maps.google.com/?cid=17844731984373395581
italy,Ragusa,"""Medi.San S.r.l."" c/o Casa di Cura del Mediterraneo",36.9193416,14.7045514,"Via Ettore Fieramosca, 100, 97100 Ragusa RG, Italy",0932 641001,http://www.clinicadelmediterraneo.com/,Clinica del Mediterraneo,https://maps.google.com/?cid=14598621665246342170
italy,Roma,"""Centro PMA Villa Pia""",41.8681469,12.450827,"Via Bernardino Ramazzini, 93, Via Folco Portinari, 5, 00151 Roma RM, Italy",06 53902,http://www.clinicavillapia.it/,Nursing Home Clinic Villa Pia,https://maps.google.com/?cid=14602874599250654129
italy,Roma,Alma Res,41.9216683,12.5138114,"Via Parenzo, 12, 00198 Roma RM, Italy",06 855 0385,http://www.almares.it/,Alma Res - Centro Fecondazione Assistita,https://maps.google.com/?cid=12910013489372653087
italy,Roma,ARTEMISIA SpA,41.9219224,12.493138,"Viale Liegi, 45, 00198 Roma RM, Italy",06 8505,https://www.altamedica.it/,Altamedica Artemisia,https://maps.google.com/?cid=10432414410507712841
italy,Roma,C.I.P.A. Centro Italiano Procreazione Assistita - Studio di Diagnosi Medica S.r.l.,41.9116108,12.5080633,"V.le Regina Margherita, 270, 00198 Roma RM, Italy",06 4423 1221,http://www.ciparoma.it/,C.I.P.A. - Centro Italiano Procreazione Assistita,https://maps.google.com/?cid=473034392424703830
italy,Roma,"Casa di cura ""Villa Margherita""",41.9153343,12.5172839,"Viale di Villa Massimo, 48, 00161 Roma RM, Italy",06 862751,https://clinicavillamargherita.it/it/?utm_source=gmb,Clinica Villa Margherita,https://maps.google.com/?cid=8008919656270298835
italy,Roma,Casa di Cura Nuova Villa Claudia,41.9524267,12.4741845,"Via Flaminia Nuova, 280, 00191 Roma RM, Italy",06 367971,https://nuovavillaclaudia.it/,New Villa Claudia,https://maps.google.com/?cid=9604039721205729061
italy,Roma,Casa di Cura Privata European Hospital,41.8540705,12.4366325,"Via Portuense, 700, 00149 Roma RM, Italy",06 659751,http://www.europeanhospital.it/,European Hospital,https://maps.google.com/?cid=2578259435292468148
italy,Roma,Casa di cura privata Villa Mafalda,41.9326756,12.5102472,"Via Monte delle Gioie, 5, 00199 Roma RM, Italy",06 860941,http://www.villamafalda.com/,Villa Mafalda,https://maps.google.com/?cid=8698948640142429400
italy,Roma,Casa di Cura privata Villa Salaria,41.9516071,12.5163174,"via Filippo Antonio Gualterio, 127, 00139 Roma RM, Italy",06 887 0041,https://villasalaria.com/,Casa di Cura Villa Salaria,https://maps.google.com/?cid=10083760218928883356
italy,Roma,Centro Biofertility,41.7831188,12.4359192,"Viale degli Eroi di Rodi, 214, 00128 Roma RM, Italy",06 841 5269,https://www.centroinfertilita.it/,Biofertility Centro Infertilita,https://maps.google.com/?cid=14606826415297911706
italy,Roma,Centro della Salute e Tutela della Donna e del Bambino Sant'Anna,41.9194935,12.5003099,"Via Garigliano, 55, 00198 Roma RM, Italy",06 6010 2614,https://www.aslroma1.it/presidi-ospedalieri/centro-tutela-salute-della-donna-e-del-bambino-santanna,ASL Roma A,https://maps.google.com/?cid=8483120512656846139
italy,Roma,Centro di Riproduzione Artificiale Umana s.r.l.,41.9166722,12.4983055,"Via Po, 102, 00198 Roma RM, Italy",06 841 7396,https://www.studiomedicocrau.it/chi-siamo-centro-crau/,Centro Di Riproduzione Artificiale Umana S.R.L.,https://maps.google.com/?cid=9726728245709990876
italy,Roma,Centro di Sterilità - Istituto di Ginecologia - Policlinico A. Gemelli - Università Cattolica del Sacro Cuore,,,,,,,
italy,Roma,Centro LEDA di Najjar Robert,41.8324654,12.4604572,"Via del Giordano, 34, 00144 Roma RM, Italy",06 593 5188,,Najjar Robert Albert,https://maps.google.com/?cid=8880260093235051338
italy,Roma,"Centro Procreazione Medicalmente Assistita - A.O. ""San Filippo Neri""",41.9116108,12.5080633,"V.le Regina Margherita, 270, 00198 Roma RM, Italy",06 4423 1221,http://www.ciparoma.it/,C.I.P.A. - Centro Italiano Procreazione Assistita,https://maps.google.com/?cid=473034392424703830
italy,Roma,"Centro Riproduzione Assistita ""Hungaria""",41.9208012,12.4971574,"Viale Liegi, 28, 00198 Roma RM, Italy",366 317 1639,,CERM Hungaria,https://maps.google.com/?cid=13111576382959046911
italy,Roma,"Centro Sterilità ""Vita""",41.9664541,12.4422254,"Via Santi Cosma e Damiano, 4, 00189 Roma RM, Italy",338 899 7473,http://www.donnamed.it/,Gruppo Donnamed Infertilità di Coppia e Procreazione Assistita,https://maps.google.com/?cid=14075430405380033403
italy,Roma,Clinica Valle Giulia Casa di Cura Spa,41.9200376,12.4804691,"Via Giuseppe de Notaris, 2, 00197 Roma RM, Italy",06 324791,http://www.clinicavallegiulia.it/,Clinica Valle Giulia Spa,https://maps.google.com/?cid=12421342403590607885
italy,Roma,Diagnostica Fabia Mater,41.8926147,12.5567341,"Piazza Sabaudia, 25, 00171 Roma RM, Italy",06 215921,https://www.fabiamater.it/osteopatia/,Diagnostica Fabia Mater - Claudia Anzovini Osteopata D.O.,https://maps.google.com/?cid=6588388043938860691
italy,Roma,ECO B.I. Srl,41.9434668,12.5264794,"Via Valle Scrivia, 21/23/25, 00141 Roma RM, Italy",06 810 3843,http://www.ecobi.it/,Eco B.I.,https://maps.google.com/?cid=12103219986990040791
italy,Roma,Grimaldi Medical S.r.l.,41.9140165,12.5023012,"Via Savoia, 84, 00198 Roma RM, Italy",06 8530 4563,https://www.grimaldimedical.it/site/home/,Grimaldi Medical Srl,https://maps.google.com/?cid=5855116846384109866
italy,Roma,IVI Roma Casilino,41.8672715,12.5986468,"Via Federico Calabresi, 11, 00169 Roma RM, Italy",800 088 247,https://ivitalia.it/centri/roma/?utm_source=google-mb&utm_medium=organic&utm_campaign=ivi_it_clinica-roma_conversion,IVI Roma Casilino,https://maps.google.com/?cid=14706651945446235127
italy,Roma,IVI Roma Srl,41.9218792,12.4863294,"Largo Ildebrando Pizzetti, 1, 00197 Roma RM, Italy",800 088 247,https://ivitalia.it/centri/roma-parioli/?utm_source=google-mb&utm_medium=organic&utm_campaign=ivi_it_clinica-roma-parioli_conversion,IVI Roma Parioli,https://maps.google.com/?cid=2602718410966844147
italy,Roma,Marilab Srl,41.8666878,12.48578,"Via Caffaro, 137, 00154 Roma RM, Italy",06 513 4191,https://marilab.it/,Marilab Garbatella,https://maps.google.com/?cid=7121303316834213403
italy,Roma,Nike Medical Center,41.9115258,12.5039145,"Via Reggio Emilia, 6, 00198 Roma RM, Italy",06 5272 9824,http://www.nikemedicalcenter.it/,Nike Medical Center,https://maps.google.com/?cid=7183321604138785664
italy,Roma,OMNIA SALUTE PMA,41.9125518,12.5153173,"Viale di Villa Massimo, 8, 00161 Roma RM, Italy",06 6930 5982,http://www.omniasaluteroma.com/,Omnia Fertilitatis,https://maps.google.com/?cid=16037428026971500354
italy,Roma,One Day Medical Center,41.8492183,12.4905375,"Via Attilio Ambrosini, 114, 00147 Roma RM, Italy",06 4521 2038,https://onedaymedicalcenter.it/,One-Day Medical Center S.R.L.,https://maps.google.com/?cid=4923584783295812647
italy,Roma,Praxis DS srl Centro ProVita,41.8809028,12.5084437,"Via Magnagrecia, 117, 00183 Roma RM, Italy",06 700 8388,http://www.praxigroup.it/,Praxi Healthcare Group,https://maps.google.com/?cid=15291082646687001610
italy,Roma,RAPRUI s.r.l.,41.9199382,12.4618567,"Via Timavo, 2, 00195 Roma RM, Italy",06 3750 1045,http://www.raprui.com/,Raprui,https://maps.google.com/?cid=5403749262381710629
italy,Civitavecchia,Salus Srl,42.0962042,11.7892207,"Via Cadorna, 12, 00053 Civitavecchia RM, Italy",0766 25800,http://www.saluscentromedico.com/,Salus (S.R.L.),https://maps.google.com/?cid=9186374469326175062
italy,Roma,UOC Fisiologia della Riproduzione - Presidio Ospedaliero Sandro Pertini,41.9214625,12.5411245,"Via dei Monti Tiburtini, 385, 00157 Roma RM, Italy",06 41431,https://www.aslroma2.it/index.php/organizzazione/ospedali/ospedale-sandro-pertini,Hospital Sandro Pertini,https://maps.google.com/?cid=16097476358217463299
italy,Roma,UOC SMU CO3 Fisiopatologia della Riproduzione - DAI Materno Infantile e Scienze UroGinecologiche - AOU Policlinico Umberto I,,,,,,,
italy,Cattolica,Extra Omnes - Medicina e Salute Riproduttiva,43.9509084,12.7239936,"Via Gallinelli, 8, 47841 Cattolica RN, Italy",0541 827138,http://www.extra-omnes.it/,Extra Omnes Medicina e Salute Riproduttiva,https://maps.google.com/?cid=2003139642756993356
italy,Rimini,Nuova Ricerca s.r.l.,44.0456184,12.5914653,"Viale Luigi Settembrini, 17/H, 47923 Rimini RN, Italy",0541 319411,http://www.nuovaricerca.com/?utm_source=google&utm_medium=organic&utm_campaign=mybusiness,Clinica Nuova Ricerca - Punto prelievi - Laboratorio analisi cliniche e poliambulatorio,https://maps.google.com/?cid=10324845102177185129
italy,Cattolica,"U.O. Fisiopatologia della riproduzione umana"" - Ospedale Cervesi di Cattolica - Azienda USL della Romagna",43.9524679,12.7360008,"Via Ludwig Van Beethoven, 1, 47841 Cattolica RN, Italy",0541 966111,https://www.auslromagna.it/luoghi/ospedali/ospedale-cervesi-cattolica,Ospedale “Cervesi” di Cattolica,https://maps.google.com/?cid=962732967249186281
italy,Trecenta,Centro PMA - Presidio Ospedaliero S. Luca - Trecenta - ULSS 5 Polesana,45.0303031,11.4660169,"Viale Ugo Grisetti, 265, 45027 Trecenta RO, Italy",0425 3931,http://www.aulss5.veneto.it/,San Luca Hospital,https://maps.google.com/?cid=1389403027232315034
italy,Cava de' Tirreni,Artemisia H. S.r.l. - Casa di Cura R. Ruggiero,40.7010864,14.7098595,"Via Corradino Biagi, 18, 84013 Cava de' Tirreni SA, Italy",089 468611,http://www.clinicaruggiero.com/,Clinical Ruggiero Artemisia H S.r.l,https://maps.google.com/?cid=10616553097320100724
italy,Salerno,C.M.R. s.r.l - Centro di Medicina della Riproduzione,40.6898,14.7748784,"Via Domenico Coda, 14, 84126 Salerno SA, Italy",089 253146,,Centro Medicina Riproduzione Srl,https://maps.google.com/?cid=18040134890724091361
italy,Salerno,Casa di Cura Tortorella S.p.a.,40.6813335,14.7685865,"Via Nicola Aversano, 1, 84124 Salerno SA, Italy",089 257 8666,https://www.tortorellaspa.com/,Tortorella Clinic,https://maps.google.com/?cid=11976799471623592970
italy,Vallo della Lucania,Centro di PMA - U.O. Ostetricia e Ginecologia - P.O. San Luca di Vallo della Lucania,40.2259133,15.2620342,"Via Francesco Cammarota, 1, 84078 Vallo della Lucania SA, Italy",0974 711111,,Presidio Ospedaliero San Luca,https://maps.google.com/?cid=14810491775491682921
italy,Salerno,Centro di Procreazione Medicalmente Assistita AOU San Giovanni di Dio e Ruggi d'Aragona,40.6489338,14.8290545,"Via San Leonardo, 84131 Salerno SA, Italy",089 671111,https://www.sangiovannieruggi.it/web/ruggi-salerno,Ospedali riuniti San Giovanni di Dio e Ruggi d'Aragona,https://maps.google.com/?cid=5957773062027288350
italy,Salerno,Centro Diagnostico Ostetrico Ginecologico,40.6898,14.7748784,"Via Domenico Coda, 14, 84126 Salerno SA, Italy",089 253146,,Centro Medicina Riproduzione Srl,https://maps.google.com/?cid=18040134890724091361
italy,Salerno,Centro Donna,,,,,,,
italy,Salerno,CONCEPTUS,40.6574552,14.8046955,"Via Picenza, 84131 Salerno SA, Italy",089 336641,,Conceptus (S.A.S.),https://maps.google.com/?cid=7853822375734157949
italy,Vallo della Lucania,D'Arena s.r.l.,40.2326332,15.269489,"Via Giuseppe Garibaldi, 25/C-F, 84078 Vallo della Lucania SA, Italy",0974 2208,http://www.laboratoriodarena.it/,D'Arena S.r.l.,https://maps.google.com/?cid=16236294547951160470
italy,Campagna,Diagnostic'80 SPA,,,,,,,
italy,Battipaglia,Embryos S.r.l.,40.6170952,14.9728188,"Plazzo Colosseum, Via Fiorignano, 84091 Battipaglia SA, Italy",0828 371516,,"Centro Embryos , Centro di Fecondazione Assistita- Day Surgery - Ambulatorio Polispecialistico",https://maps.google.com/?cid=15707233525459134732
italy,Salerno,Fertilitas M.R.D.S. (Medicina della Riproduzione Day Surgery) s.r.l.,40.6727339,14.7766886,"Via Torrione, 54, 84127 Salerno SA, Italy",089 798025,http://www.fertilitas.it/,Fertilitas Medicina Della Riproduzione Day Surgery Srl,https://maps.google.com/?cid=2401787408625828420
italy,Salerno,G.E.A. Medicina della Riproduzione srl,40.6546676,14.8187573,"Via Sabato Visco, 24a, 84131 Salerno SA, Italy",089 925 2921,http://www.geamed.it/,G.E.A Medicina della Riproduzione - Dott. Mario Cirmeni,https://maps.google.com/?cid=623215415265943722
italy,Agropoli,Istituto Polidiagnostico Santa Chiara Srl,40.3388396,14.9895974,"Via Estate, 31 - 33, 84043 Agropoli SA, Italy",0974 822282,http://www.analisisantachiara.com/,Istituto Polidiagnostico S.Chiara Della D.R.Ssa Rosetta Di Buono & C.,https://maps.google.com/?cid=16054561615921986901
italy,Eboli,Medi Service Srl,40.6136393,15.0546933,"Via Nazionale, 62, 84025 Eboli SA, Italy",,http://www.medi-service.it/,Medi Service - Dott. C. Carrafiello,https://maps.google.com/?cid=958825146512616702
italy,Salerno,Mediterraneo Medicina della Riproduzione,40.6781474,14.7642025,"Via Giovanni Cuomo, 29, 84122 Salerno SA, Italy",089 252295,,Mediterraneo Medicina Della Riproduzione,https://maps.google.com/?cid=15497422217539253463
italy,Siena,A.G.I. Medica PMA,43.3220834,11.3479275,"Viale Pietro Toselli, 94/F, 53100 Siena SI, Italy",0577 222224,https://www.agimedica.it/,A.G.I. Medica,https://maps.google.com/?cid=4627234462288580134
italy,Siena,Centro Diagnosi e Cura Sterilità - Università degli Studi di Siena - U.O. Ostetricia e Ginecologia - Policlinico Le Scotte - P.O. Senese,,,,,,,
italy,Chianciano Terme,Chianciano Salute - Centro di Chirurgia Ambulatoriale,43.036724,11.819241,"Via Concetto Marchesi, 73, 53042 Chianciano Terme SI, Italy",0578 62713,http://www.chiancianosalute.com/,Chianciano Salute SPA,https://maps.google.com/?cid=8742788584720336055
italy,Monteriggioni,Siena Surgery s.r.l.,43.3490502,11.3081704,"Via Sandro Pertini, 7, 53035 Monteriggioni SI, Italy",0577 594658,https://www.doctolib.it/centro-medico/monteriggioni/siena-surgery,SIENA SURGERY,https://maps.google.com/?cid=10099432337502952551
italy,Cosio Valtellino,Poliambulatorio Multiclinica S.M.A. s.r.l.,46.1366421,9.5715642,"Via Martinelli, 11, 23017 Morbegno SO, Italy",0342 194 9401,https://www.multiclinica.it/,Centro Clinico Valtellinese,https://maps.google.com/?cid=846785140176894998
italy,Sarzana,Centro di Procreazione Assistita - Presidio Ospedaliero San Bartolomeo di Sarzana,44.1209243,9.9489432,"Via Cisa, Santa Caterina, 19038 Sarzana SP, Italy",0187 5331,http://www.asl5.liguria.it/PerilCittadino/Ospedale.aspx,Hospital San Bartolomeo,https://maps.google.com/?cid=17271321636926387299
italy,Siracusa,Centro HERA Siracusa srl,37.0807637,15.273204,"Via Carlo Forlanini, 7, 96100 Siracusa SR, Italy",0931 193 4830,https://www.hera.it/centro-hera-siracusa.php,Centro HERA Siracusa,https://maps.google.com/?cid=2062463995389649487
italy,Sassari,Centro per PMA - Clinica Ostetrica e Ginecologica dell'Università di Sassari - A.O.U. di Sassari,40.7200669,8.5535833,"Viale S. Pietro, 07100 Sassari SS, Italy",079 228263,https://www.aousassari.it/index.php?xsl=7&s=8004&v=2&c=2896,Clinica Ostetrica e Ginecologica,https://maps.google.com/?cid=1781059771310603480
italy,Taranto,CREA s.r.l.,40.434886,17.2683357,"Via Scoglio del Tonno, 79, 74121 Taranto TA, Italy",099 772 3999,http://eugin.it/,Crea Srl Di Chiappetta Prof. Luigi - Andrologo - Ginecologo - Sessuologo,https://maps.google.com/?cid=18381367671352474274
italy,Arco,Centro Provinciale per la Procreazione Medicalmente Assistita - Ospedale Alto Garda e Ledro,,,,,,,
italy,Torino,C. M. R. Centro di Medicina Riproduttiva e Procreazione Assistita,45.0553823,7.666852,"Via Cristoforo Colombo, 1, 10128 Torino TO, Italy",011 568 3865,https://www.infertilitadicoppia.com/,CMR. Centro Medicina Riproduttiva e Procreazione Assistita,https://maps.google.com/?cid=3281293597741891817
italy,Torino,CDC S.p.a.,45.0642754,7.6481554,"Via Pollenzo, 5/b, 10141 Torino TO, Italy",011 385 3893,http://www.gruppocdc.it/,Affidea|CDC - Via Pollenzo,https://maps.google.com/?cid=3858088907423559496
italy,Torino,Centro Clinico San Carlo di Fecondazione Assistita e Ginecologia,45.0516459,7.6760673,"Via Michelangelo Buonarroti, 3, 10126 Torino TO, Italy",011 658683,https://www.fecondazione.org/,Centro Clinico Di Ginecologia e Fecondazione Assistita San Carlo,https://maps.google.com/?cid=13975927839101042017
italy,Torino,Centro Fivet Città di Torino - c/o Casa della Salute ex Ospedale di Valdese,45.0574129,7.6840185,"Via Silvio Pellico, 19, 10125 Torino TO, Italy",011 654 0213,http://www.aslcittaditorino.it/sedi/ambulatorio-via-silvio-pellico/,House Of Health Valdese,https://maps.google.com/?cid=15554895978087547924
italy,Torino,Centro Medicina della Riproduzione - AOU città della Salute e della Scienza di Torino - Ospedale Sant'Anna,45.0413771,7.6742554,"Corso Bramante, 88, 10126 Torino TO, Italy",011 633 1633,https://www.cittadellasalute.to.it/,Azienda Ospedaliero-Universitaria Città della Salute e della Scienza di Torino,https://maps.google.com/?cid=16937294993525080998
italy,Torino,Livet s.r.l.,45.0464132,7.6705998,"Via Tiziano Vecellio, 3, 10126 Torino TO, Italy",800 816 969,https://www.generapma.it/cliniche/genera-livet-torino/,Genera Livet Torino,https://maps.google.com/?cid=5060932723646348716
italy,Torino,Sedes Sapientae,45.0523868,7.6803936,"Via Giorgio Bidone, 31, 10125 Torino TO, Italy",011 557 4574,http://www.clinicasedes.it/,Clinica Sedes Sapientiae,https://maps.google.com/?cid=12593177190845336837
italy,Pinerolo,Studio Medico San Francesco s.r.l.,44.8889803,7.3555158,"Via Bogliette, 3/c, 10064 Pinerolo TO, Italy",0121 396464,https://www.pmosanfrancesco.it/,Studio Medico San Francesco,https://maps.google.com/?cid=11328989327683422024
italy,Pinerolo,Studio Medico Vardè,44.8835597,7.3347654,"Via Virginio, 49, 10064 Pinerolo TO, Italy",,,Studio Medico Varde,https://maps.google.com/?cid=712189808663643185
italy,Trieste,SCR Fisiopatologia della Riproduzione e Procreazione Medicalmente Assistita - IRCCS Burlo Garofolo,,,,,,,
italy,Villorba,Centro di Medicina Spa,45.6984851,12.2560835,"Viale della Repubblica, 10/B, 31050 Villorba TV, Italy",0422 698111,https://treviso-villorba.centrodimedicina.com/,Medical Center in Treviso / Villorba,https://maps.google.com/?cid=16292659572496407784
italy,Oderzo,"Centro per la Procreazione Medicalmente Assistita ""Gianluigi Beltrame"" - Ospedale di Oderzo - ULSS9 Treviso",,,,,,,
italy,Conegliano,Centro Regionale Specializzato di Fisiopatologia della Riproduzione - Ospedale Civile di Conegliano,45.8816625,12.290304,"Via Brigata Bisagno, 5, 31015 Conegliano TV, Italy",0438 663111,,Hospital Conegliano - Treviso ULSS 2,https://maps.google.com/?cid=17981038900866793516
italy,Oderzo,Opitergium Medica srl,45.7838824,12.4905102,"Via Giuseppe Mazzini, 10, 31046 Oderzo TV, Italy",0422 713049,http://www.opitergiummedica.it/,Opitergium Medica,https://maps.google.com/?cid=953564146432018550
italy,San Daniele del Friuli,Centro di PMA San Daniele,45.6386044,12.5952075,"Via Trasimeno, 2, 30027 San Donà di Piave VE, Italy",,https://centrodimedicina.com/centro-di-eccellenza/centro-procreazione-assistita/,Centro di Eccellenza di Procreazione Medicalmente Assistita - PMA - Centro di medicina,https://maps.google.com/?cid=7857509361398999014
italy,Udine,Policlinico Città di Udine SpA - Casa di Cura Privata,46.0521374,13.2103956,"Viale Venezia, 410, 33100 Udine UD, Italy",0432 239215,http://www.policlinicoudine.it/,Policlinico Città di Udine,https://maps.google.com/?cid=3806364661557234130
italy,Varese,ASST Settelaghi - c/o UO di Ostetricia e Ginecologia del Presidio Ospedaliero Filippo del Ponte,45.8155206,8.8345756,"Via Filippo del Ponte, 19, 21100 Varese VA, Italy",0332 299111,https://www.asst-settelaghi.it/ospedale-del-ponte,Filippo Del Ponte Hospital,https://maps.google.com/?cid=5115169945028213689
italy,Varese,Campus Medico Srl Socio Unico,45.8155653,8.8308638,"Via Giuseppe Mazzini, 10, 21100 Varese VA, Italy",0332 154 4411,http://www.campusmedico.it/,Campus medical Varese,https://maps.google.com/?cid=13091663213441006416
italy,Castellanza,Centro Diagnostico S. Nicola Poliambulatorio - Castellanza,45.6102015,8.8979528,"Via Giuseppe Garibaldi, 29, 21053 Castellanza VA, Italy",0331 182781,https://www.cerbahealthcare.it/sedi/castellanza-via-giuseppe-garibaldi-29/,Centro Diagnostico San Nicola Poliambulatorio Srl,https://maps.google.com/?cid=7051630974183722453
italy,Varese,Centro Diagnostico Varesino CDV S.r.l.,45.8138761,8.8293654,"Via San Michele Arcangelo, 2, Via S. Michele Arcangelo, 6, 21100 Varese VA, Italy",0332 182 9829,https://www.humanitas-care.it/?utm_source=google&utm_medium=organic&utm_campaign=gmb-listing&utm_content=hmc-var,Cdv Dia Srl,https://maps.google.com/?cid=7098942165729314234
italy,Gallarate,Diagnosi e cura dell'infertilità di coppia - Studio Medico Specialistico Dr.ssa Elena Castoldi,45.66021,8.785692,"Via Antonio Rosmini, 2, 21013 Gallarate VA, Italy",0331 248866,http://www.elenacastoldi.it/,Studio Dott.ssa Elena Castoldi,https://maps.google.com/?cid=11654215872663216103
italy,Varese,Elianto srl,45.8062227,8.8390349,"Viale Luigi Borri, 75, 21100 Varese VA, Italy",0332 813456,http://www.poliambulatorioelianto.it/,Specialist Outpatient Clinic Elianto,https://maps.google.com/?cid=13765653423371767662
italy,Saronno,Meditel Clinica Polispecialistica,45.6307703,9.030352,"Via V. Alliata, 1, 21047 Saronno VA, Italy",02 962821,http://www.meditel-group.it/,Meditel Medical Center Polispecialistico Srl,https://maps.google.com/?cid=7871007925764472889
italy,Varese,PCC - Pelvic Care Center - Centro Cure Pelviche s.r.l.,45.8160441,8.8273321,"Via Dazio Vecchio, 6, 21100 Varese VA, Italy",,http://www.pccvarese.it/,CCP - Pelvic Care Center - Pelvic Care Center srl,https://maps.google.com/?cid=15475970519391899702
italy,Venezia,ARC STER - Centro Studi per la Terapia della Sterilità della Coppia s.r.l.,45.4946891,12.2388199,"Via Antonio da Mestre, 19, 30174 Venezia VE, Italy",041 959611,http://www.arcster.it/,ARC-Ster - Centro di Fecondazione Assistita (PMA),https://maps.google.com/?cid=4889282691341974229
italy,Venezia,Centro di Medicina S.p.A. - Filiale di Mestre,45.4828498,12.2480761,"Vle Ancona, 5, 30172 Venezia VE, Italy",041 532 2500,http://mestre.centrodimedicina.com/,Centro di Medicina,https://maps.google.com/?cid=7268042296962071326
italy,San Donà di Piave,Centro di Medicina Spa - F.le di San Donà di Piave,45.6386044,12.5952075,"Via Trasimeno, 2, 30027 San Donà di Piave VE, Italy",0421 222221,https://san-dona-di-piave.centrodimedicina.com/,Centro di Medicina,https://maps.google.com/?cid=2609907137465097291
italy,Martellago,GENESI S.r.l. (Instituto Bernabeu),45.5407595,12.171099,"Via Castellana, 88/D/int.5, 30030 Martellago VE, Italy",041 540 0989,https://www.institutobernabeu.com/it/centri/venezia/?utm_source=google&utm_medium=maps&utm_campaign=GoogleMyBusiness&utm_term=venezia,GENESI srl,https://maps.google.com/?cid=4289585712834027817
italy,Santorso,Centro di Procreazione Medico - Assistita Ospedale di Santorso,45.7265918,11.4145317,"SP66, 42, 36014 Santorso VI, Italy",0445 571111,https://www.aulss7.veneto.it/,Ospedale Santorso,https://maps.google.com/?cid=4230881310768685073
italy,Vicenza,Clinica Eugin,45.551262,11.5326154,"Via Lussemburgo, 57, 36100 Vicenza VI, Italy",800 688 680,http://eugin.it/,Eugin Vicenza,https://maps.google.com/?cid=1563675466392146868
italy,Marostica,Generalife Veneto Srl,45.7370833,11.654211,"Via Fermi, 1, 36063 Marostica VI, Italy",800 816 969,https://www.generapma.it/cliniche/genera-veneto/,Genera Veneto,https://maps.google.com/?cid=10009762626020092172
spain,A Coruña,Equipo Ron – Hospital Quirón A Coruña,43.328501,-8.40002,"Hospital Quirón, Rúa Londres, 2, 15009 A Coruña, Spain",981 21 98 30,https://equiporon.com/,Ron y Asociados,https://maps.google.com/?cid=18439032663947948643
spain,A Coruña,HM Belén,43.3657226,-8.4147919,"R. Filantropía, 3, 15011 A Coruña, Spain",981 57 77 17,https://www.hmbelen.com/,Maternidad HM Belén,https://maps.google.com/?cid=4182530942541466524
spain,A Coruña,Clínica Segrelles,43.3582533,-8.4209727,"Rúa Isaac Peral, 1, 15008 A Coruña, Spain",981 14 42 85,https://clinicasegrelles.es/,Clínica Segrelles / Ginecología y Obstetricia,https://maps.google.com/?cid=9107630054426774517
spain,Albacete,Consultorio de Ginecología y Obstetricia,38.9928868,-1.8555094,"C. Tesifonte Gallego, 6, 02002 Albacete, Spain",967 21 22 24,http://www.clinicaginecologicamoratalla.com/,Clínica Ginecologica Moratalla,https://maps.google.com/?cid=4033783048316532713
spain,Albacete,H. General De Albacete,38.9854014,-1.8463039,"C. Hermanos Falco, 37, 02006 Albacete, Spain",967 59 71 00,http://www.chospab.es/,Hospital General Universitario de Albacete,https://maps.google.com/?cid=524946149417800343
spain,Albacete,Instituto Bernabéu ALBACETE,38.9968863,-1.8609816,"C. Ibáñez Ibero, 3, 02005 Albacete, Spain",967 10 00 55,https://www.institutobernabeu.com/es/centro/albacete/?utm_source=google&utm_medium=maps&utm_campaign=GoogleMyBusiness&utm_term=Albacete,Instituto Bernabeu Albacete,https://maps.google.com/?cid=14213091526266181035
spain,Alcalá De Henares,H. Principe De Asturias,40.5099843,-3.3484023,"Av. Principal de la Universidad, s/n, 28805 Alcalá de Henares, Madrid, Spain",918 87 81 00,https://www.comunidad.madrid/hospital/principeasturias/,Hospital Universitario Príncipe de Asturias,https://maps.google.com/?cid=9670072476801196610
spain,Alcázar de San Juan,Ginequalitas SLP,39.3958171,-3.2091551,"C. Rondilla Cruz Verde, 141, 13600 Alcázar de San Juan, Ciudad Real, Spain",926 54 29 52,http://www.ginequalitas.com/,Ginequalitas Reproducción,https://maps.google.com/?cid=13551229203667300525
spain,Algeciras,Clínica Medrano,36.1433862,-5.4519932,"Avenida de España, Edificio Jardines del, Pl. del Rosario, Bloque 6, 11205 Algeciras, Cádiz, Spain",956 09 00 02,http://www.clinicamedrano.com/,"Clínica de fertilidad, ginecología y obstetricia Medrano",https://maps.google.com/?cid=9178405713043481201
spain,Alicante,"Ferrobelab, S.L.",38.3403096,-0.4941486,"Av. Oscar Espla, 15 BIS, 03007 Alacant, Alicante, Spain",965 12 26 54,https://ferrobelab.com/,FERROBELAB Centro de Reproducción Asistida,https://maps.google.com/?cid=10518585978383697212
spain,Alicante,H. General De Alicante,38.3635047,-0.4855279,"Av. Pintor Baeza, 12, 03010 03010s3, Alicante, Spain",965 93 30 00,,University General Hospital Dr. Balmis,https://maps.google.com/?cid=18392249735630764387
spain,Alicante,Instituto Bernabéu,38.3653625,-0.4578604,"Av. Albufereta, 31, 03016 Alacant, Alicante, Spain",965 15 40 00,https://www.institutobernabeu.com/es/centro/alicante/?utm_source=google&utm_medium=maps&utm_campaign=GoogleMyBusiness&utm_term=Alicante,Instituto Bernabeu,https://maps.google.com/?cid=7830996181850238610
spain,Alicante,IVF-SPAIN (Alicante),38.3670338,-0.4323238,"Av. de Ansaldo, 13, 03540 Alicante (Alacant), Alicante, Spain",965 26 78 90,https://www.ivf-spain.com/?utm_source=googlemybusinessALC&utm_medium=botonweb&utm_campaign=cmanager,IVF-Spain,https://maps.google.com/?cid=2408346417612122226
spain,Alicante,IVI Alicante,38.3640568,-0.461771,"Avenida de Denia, 111, Parking gratuito entrada por, C. Escultor Adrián Carrillo, 1, 03015 Alicante (Alacant), Alicante, Spain",651 79 10 00,https://ivi.es/clinicas/alicante/?utm_source=google-mb&utm_medium=organic&utm_campaign=ivi_es_clinica-alicante_conversion,IVI Alicante - Clínica de Reproducción Asistida y Fertilidad,https://maps.google.com/?cid=4157895886301101226
spain,Alicante,Unidad de Reproducción Clínica Vistahermosa,38.3629226,-0.4635489,"Avinguda de Dénia, 103, 03015 Alacant, Alicante, Spain",965 26 91 46,https://urvistahermosa.com/,Unidad de Reproducción Asistida Clínica Vistahermosa,https://maps.google.com/?cid=8585639080144423557
spain,Alicante,Accuna.,38.3619317,-0.4660205,"Avenida Pintor Xavier Soler, 18, 03015 Alacant, Alicante, Spain",965 12 66 90,https://www.accuna.es/,Clínica Accuna,https://maps.google.com/?cid=3359612532501713750
spain,Almería,C.H. Torrecárdenas,36.8626932,-2.4411846,"C. Hermandad de Donantes de Sangre, s/n, 04009 Almería, Spain",950 01 60 00,https://www.hospitaltorrecardenas.es/,Torrecárdenas University Hospital,https://maps.google.com/?cid=14821612572483223772
spain,Almería,IVI Almeria,36.8467275,-2.4475378,"C. Antonio Cano, 30, 04009 Almería, Spain",651 79 10 00,https://ivi.es/clinicas/almeria/?utm_source=google-mb&utm_medium=organic&utm_campaign=ivi_es_clinica-almeria_conversion,IVI Almería - Clínica de Reproducción Asistida y Fertilidad,https://maps.google.com/?cid=15000462751686438098
spain,Almería,Unidad de Reproducción - Hospital Mediterráneo,36.8205658,-2.4342044,"C. Nueva Musa, 04007 Almería, Spain",950 62 16 32,https://grupointernacionalur.com/clinicas/ur-almeria/,Unidad de Reproducción (UR) Hospital Mediterráneo,https://maps.google.com/?cid=8149313541742444518
spain,Almoradí,Clínica Ufeal,38.1126987,-0.7885567,"C. Luis Buñuel, 48, Bajo, 03160 Almoradí, Alicante, Spain",966 78 07 76,https://www.novafertility.eu/,"Novafertility . Clínica de Ginecología, Fertilidad y Reproducción Asistida.",https://maps.google.com/?cid=11853289773391700442
spain,Aravaca,URH Garcia Del Real,40.4645153,-3.7863832,"Cam. de la Zarzuela, 19, Moncloa - Aravaca, 28023 Madrid, Spain",917 40 16 90,http://urh.es/,Fertility Clinic URH,https://maps.google.com/?cid=13656894777484679462
spain,Badajoz,CERHA,38.8658646,-6.9710793,"C. la Violeta, 4, 06010 Badajoz, Spain",924 21 51 86,,Extremadura Center for Assisted Human Reproduction,https://maps.google.com/?cid=1233429335433023797
spain,Badajoz,Instituto Extremeño de Reproducción Asistida,38.88217,-6.99527,"C. Julio Cienfuegos Linares, 21, 06006 Badajoz, Spain",924 28 69 62,https://www.iera.es/,Extremadura Institute of Health Assisted Reproduction Quirón,https://maps.google.com/?cid=7121118737599312696
spain,Baracaldo,Hospital Universitario Cruces,43.2825571,-2.9843738,"Cruces Plaza, 12, 48903 Barakaldo, Bizkaia, Spain",946 00 60 00,https://www.osakidetza.euskadi.eus/entidad/hospital-universitario-cruces/ab84-cerbus/es/,Cruces University Hospital,https://maps.google.com/?cid=3573317202874686448
spain,Barcelona,C.I.R.H,41.3993404,2.1506839,"Carrer de Balmes, 236, Sarrià-Sant Gervasi, 08006 Barcelona, Spain",932 80 65 35,https://www.cirh.es/,CIRH,https://maps.google.com/?cid=11409172943090478391
spain,Barcelona,Centro de reproducción asistida clínica Sagrada Familia,41.4047366,2.1307163,"Pg. de la Bonanova, 39, Sarrià-Sant Gervasi, 08022 Barcelona, Spain",936 55 55 44,https://centrofertilidad.com/centro-en-barcelona/?utm_source=GMB&utm_medium=click_web&utm_campaign=barcelona,Centro de Fertilidad Barcelona,https://maps.google.com/?cid=13204426152754721230
spain,Barcelona,Centro Medico Teknon,41.4065664,2.1272565,"Carrer de Vilana, 12, Sarrià-Sant Gervasi, 08022 Barcelona, Spain",932 90 62 00,https://www.teknon.es/,Teknon Medical Center,https://maps.google.com/?cid=829021218588090378
spain,Barcelona,Clínica EUGIN,41.3992211,2.1506504,"Carrer de Balmes, 236, Sarrià-Sant Gervasi, 08006 Barcelona, Spain",933 22 11 22,https://www.eugin.es/barcelona/?utm_medium=google&utm_source=mybusiness&utm_campaign=552,Clínica EUGIN Barcelona,https://maps.google.com/?cid=13720927652147991629
spain,Barcelona,Fertilab.Institut Catalá de Fertilitat,41.3927949,2.1320612,"Ronda del General Mitre, 14, Sarrià-Sant Gervasi, 08017 Barcelona, Spain",932 41 14 14,http://www.fertilab.com/,Fertilab Barcelona,https://maps.google.com/?cid=10681556960136844193
spain,Barcelona,Fundació Puigvert - Hospital de la Santa Creu i Sant Pau,41.4124576,2.1728312,"Carrer de Cartagena, 340-350, Horta-Guinardó, 08025 Barcelona, Spain",934 16 97 00,http://www.fundacio-puigvert.es/,Fundació Puigvert,https://maps.google.com/?cid=4572311280545613800
spain,Barcelona,General Lab,41.3912105,2.1467982,"Carrer del Comte d'Urgell, 270, L'Eixample, 08036 Barcelona, Spain",933 63 60 00,,General Lab,https://maps.google.com/?cid=11988956409494987172
spain,Barcelona,Gine-3,41.4004664,2.1454276,"Via Augusta, 134, Sarrià-Sant Gervasi, 08006 Barcelona, Spain",933 23 63 06,http://www.gine3.com/,Centre Ginecològic Gine3,https://maps.google.com/?cid=17115397366231715877
spain,Barcelona,Gravida,41.3895377,2.130136,"Hospital de Barcelona, Av. Diagonal, 660, planta 16, Les Corts, 08034 Barcelona, Spain",932 06 64 89,https://gravida.com/,Gravida - Clínica de Reproducción asistida en Barcelona,https://maps.google.com/?cid=11689951333335312933
spain,Barcelona,H. Del Mar,41.3845118,2.1939045,"Pg. Marítim de la Barceloneta, 25, 29, Ciutat Vella, 08003 Barcelona, Spain",932 48 30 00,https://www.parcdesalutmar.cat/,Hospital del Mar,https://maps.google.com/?cid=11057428783107934821
spain,Barcelona,Hospital Clínic de Barcelona,41.3894185,2.1522074,"Carrer de Villarroel, 170, L'Eixample, 08036 Barcelona, Spain",932 27 54 00,http://www.clinicbarcelona.org/,Hospital Clínic de Barcelona,https://maps.google.com/?cid=8911687898509454375
spain,Barcelona,Hospital Quiron Barcelona,41.4156852,2.1385657,"Plaça d'Alfonso Comín, 7, Gràcia, 08023 Barcelona, Spain",932 55 40 00,https://www.quironsalud.es/hospital-barcelona,Hospital Quirónsalud Barcelona,https://maps.google.com/?cid=5782493213277759372
spain,Barcelona,Hospital Valle Hebrón,41.4282188,2.1409231,"Pg. de la Vall d'Hebron, 119, Horta-Guinardó, 08035 Barcelona, Spain",934 89 30 00,https://hospital.vallhebron.com/,Vall d'Hebron University Hospital,https://maps.google.com/?cid=433842662973216885
spain,Barcelona,Institut Dexeus,41.3850131,2.1256223,"Carrer de Sabino Arana, 19 Ed, Distrito de Les Corts, 08028 Barcelona, Spain",932 27 47 47,https://www.quironsalud.es/dexeus-barcelona,Hospital Universitari Dexeus - Grup Quirónsalud,https://maps.google.com/?cid=17590495073194769041
spain,Barcelona,Institut Marques,41.3893491,2.1285548,"Av. Diagonal, 662, 664, Les Corts, 08034 Barcelona, Spain",932 85 82 16,https://www.institutomarques.com/utm_source=google&utm_medium=organic&utm_campaign=gmb,Institut Marquès Barcelona - Clínica de Reproducció Assistida,https://maps.google.com/?cid=6794188154517293758
spain,Barcelona,IVI Barcelona,41.3834788,2.1486151,"Carrer de Mallorca, 45, L'Eixample, 08029 Barcelona, Spain",651 79 10 00,https://ivi.es/clinicas/barcelona/?utm_source=google-mb&utm_medium=organic&utm_campaign=ivi_es_clinica-barcelona_conversion,IVI Barcelona - Clínica de Reproducción Asistida y Fertilidad,https://maps.google.com/?cid=16089378190761013154
spain,Barcelona,Girexx Barcelona - Fertility Clínics SL.,41.408337,2.178243,"260, Carrer de Cartagena, 258, L'Eixample, 08025 Barcelona, Spain",935 95 20 10,http://girexx.com/,Girexx,https://maps.google.com/?cid=2507961246412493652
spain,Barcelona,Fertty,41.3911783,2.174949,"Carrer d'Ausiàs Marc, 25, L'Eixample, 08010 Barcelona, Spain",937 37 81 90,https://fertty.com/,Fertty,https://maps.google.com/?cid=62084056342579094
spain,Barcelona,FECUNMED-Hospital Universitari Sagrat Cor,41.388845,2.145732,"Carrer de Viladomat, 288, L'Eixample, 08029 Barcelona, Spain",933 22 11 11,https://www.hscor.com/idcsalud-client/cm/sagrat-cor/tkMain?locale=es_ES,Hospital Universitari Sagrat Cor,https://maps.google.com/?cid=11255164662613228102
spain,Benalmádena,IVI Malaga,36.5981796,-4.5584769,"Av de los Argonautas, s/n, Planta 1 (Hospital Xanit), 29630 Benalmádena, Málaga, Spain",900 847 300,https://ivi.es/clinicas/benalmadena/?utm_source=google-mb&utm_medium=organic&utm_campaign=ivi_es_clinica-vigo_conversion,Clínica de Reproducción Asistida y Fertilidad,https://maps.google.com/?cid=10021043200055825680
spain,Beniarbeig,IREMA,38.8230011,-0.0012496,"Av. del Verger, 10, 03778 Beniarbeig, Alicante, Spain",966 47 72 65,https://www.irema.org/,Clínica Irema Beniarbeig Fertilidad y Reproducción Asistida,https://maps.google.com/?cid=16508899354638112935
spain,Benidorm,IMED Hospitales,38.5412884,-0.1063413,"Calle Dr. Santiago Ramón y Cajal, 7, 03503 Benidorm, Alicante, Spain",966 87 87 87,http://www.imedlevante.com/,Hospital IMED Levante,https://maps.google.com/?cid=2064042991042235613
spain,Bilbao,Clínica Ginecológica Bilbao,43.258595,-2.915215,"Mendiri Maisuaren Kalea, s/n, 48006 Bilbo, Bizkaia, Spain",944 73 00 18,http://www.cgb-bilbao.com/,Clínica Ginecológica Bilbao,https://maps.google.com/?cid=13708892733626302718
spain,Bilbao,Consultorio Ginecologico Elcano,43.264362,-2.9366862,"Colón de Larreátegui K., 47, Abando, 48011 Bilbo, Bizkaia, Spain",944 23 50 16,http://www.elcano7.com/,Clinica Ginecológica Elcano,https://maps.google.com/?cid=3045453827100783711
spain,Bilbao,Instituto IGIN,43.2671124,-2.9409662,"C. del Lehendakari Leizaola, 27, Planta Baja, Abando, 48011 Bilbao, Vizcaya, Spain",946 51 07 00,http://www.institutoigin.com/,IGIN - Especialistas Reproducción Asistida,https://maps.google.com/?cid=5658389338392654237
spain,Bilbao,Quiron Bilbao,43.2674431,-2.9374459,"Euskadi Pl., 7, Abando, 48009 Bilbao, Vizcaya, Spain",944 89 80 30,https://www.quironsalud.es/plaza-euskadi,Centro Médico Quirónsalud Plaza Euskadi,https://maps.google.com/?cid=12629829430647151886
spain,Bilbao,Reproducción Bilbao,43.2685291,-2.953303,"C. Morgan Kalea, 2B, Deusto, 48014 Bilbao, Vizcaya, Spain",946 11 12 13,https://reproduccionbilbao.es/,Reproducción Bilbao,https://maps.google.com/?cid=14707203074722085607
spain,Bilbao,Clínica Euskalduna,43.2595719,-2.9320233,"Euskalduna Kalea, 10, Abando, 48008 Bilbo, Bizkaia, Spain",944 10 37 52,http://www.euskaldunaconsultasmedicas.com/,Clínica Euskalduna,https://maps.google.com/?cid=12813358271219084232
spain,Boadilla del Monte,HM Fertility Center Montepríncipe,40.414287,-3.844959,"Av. de Montepríncipe, 25, 28660 Boadilla del Monte, Madrid, Spain",900 111 010,https://www.hmfertilitycenter.com/,HM Fertility Center,https://maps.google.com/?cid=589087007898897578
spain,Burjassot,UR IMED Valencia.,39.5022704,-0.4086407,"Av. de la Ilustración, 1, 46100 Burjasot, Valencia, Spain",963 00 30 17,http://www.urimedvalencia.com/,Unidad de Reproducción Asistida IMED Valencia,https://maps.google.com/?cid=7672171807416289082
spain,Cáceres,Clínica Norba,39.4698425,-6.3889631,"C. Amberes, 27, 29, Oeste, 10005 Cáceres, Spain",927 62 96 19,http://www.clinicanorba.com/,Clinica Norba,https://maps.google.com/?cid=8984762619000986085
spain,Cádiz,Clínica La Salud,36.5321093,-6.2958207,"C. Feduchy, 8, 11001 Cádiz, Spain",956 22 53 01,https://www.grupohla.com/hlahospitallasalud,HLA Hospital La Salud,https://maps.google.com/?cid=16318318796340249395
spain,Cádiz,H. U. Puerta del Mar,36.5090347,-6.2779292,"Av. Ana de Viya, 21, 11009 Cádiz, Spain",956 00 21 00,http://www.hupm.com/,Hospital Universitario Puerta del Mar,https://maps.google.com/?cid=13196520708280320098
spain,Carcaixent,FIVIR,39.4497576,-0.3607439,"Carrer Blas Gámez Ortiz, Quatre Carreres, 46013 València, Valencia, Spain",961 10 54 54,http://www.fivir.es/,Instituto FIVIR | Clínica de fertilidad y reproducción asistida en Valencia,https://maps.google.com/?cid=16176872337066073280
spain,Cartagena,"Instituto Bernabéu Cartagena, SL.",37.6099968,-0.9943324,"C. Duque Severiano, 5, 30205 Cartagena, Murcia, Spain",968 32 15 20,https://www.institutobernabeu.com/es/centro/cartagena/?utm_source=google&utm_medium=maps&utm_campaign=GoogleMyBusiness&utm_term=Cartagena,Instituto Bernabeu Cartagena,https://maps.google.com/?cid=13046920483122199809
spain,Cartagena,IVI Cartagena,37.61582,-0.993408,"C Santiago Ramón Y Cajal, 106, 30205 Cartagena, Murcia, Spain",651 79 10 00,https://ivi.es/clinicas/cartagena/?utm_source=google-mb&utm_medium=organic&utm_campaign=ivi_es_clinica-cartagena_conversion,IVI Cartagena - Clínica de Reproducción Asistida y Fertilidad,https://maps.google.com/?cid=10161241655026163061
spain,Castellón,H. General De Castelllon,40.0023167,-0.0416058,"Avinguda de Benicàssim, 128, 12004 Castelló de la Plana, Castelló, Spain",964 72 50 00,https://castellon.san.gva.es/ca/hospital-general,Hospital General Universitari a Castelló,https://maps.google.com/?cid=4650100537477727584
spain,Castellón,Hospital Rey Don Jaime,39.9972056,-0.0365239,"Carrer Santa Maria Rosa Molas, 25, 12004 Castelló de la Plana, Castelló, Spain",964 72 60 00,https://vithas.es/centro/vithas-hospital-castellon/,Hospital Vithas Castellón,https://maps.google.com/?cid=338610629219917180
spain,Castellón,IVI Castellón,39.9935485,-0.033307,"Av. dels Caputxins, 63, 12004 Castelló de la Plana, Castelló, Spain",651 79 10 00,https://ivi.es/clinicas/castellon/?utm_source=google-mb&utm_medium=organic&utm_campaign=ivi_es_clinica-castellon_conversion,IVI Castellón - Clínica de Reproducción Asistida y Fertilidad,https://maps.google.com/?cid=3032549956197051882
spain,Ciudad Real,Clínica Rubal,38.9757957,-3.9137379,"Av. Parque de Cabañeros, 6, 13005 Ciudad Real, Spain",926 27 00 22,https://rubal.es/,Clínica Rubal,https://maps.google.com/?cid=1985178317359974168
spain,Ciudad Real,QuirónSalud Ciudad Real,38.9797782,-3.9388343,"C. Alisos, 19, 13002 Ciudad Real, Spain",926 25 50 08,https://www.quironsalud.es/ciudad-real,Hospital Quirónsalud Ciudad Real,https://maps.google.com/?cid=8590174752633499870
spain,Ciutadella de Menorca,IBILAB Menorca,39.9969163,3.8323944,"Carrer de Madrid, 12, 07760 Ciutadella de Menorca, Illes Balears, Spain",,,Ibilab Menorca,https://maps.google.com/?cid=18049345380482007251
spain,Córdoba,Clínica Bau - Cordoba,37.9033723,-4.7902672,"Av. del Brillante, 91, Nte. Sierra, 14012 Córdoba, Spain",957 49 20 49,https://www.clinicabau.com/,Hospital Clinica Bau,https://maps.google.com/?cid=16417295599854675365
spain,Córdoba,Clínica IFEM,37.8746252,-4.8004126,"C. Escritora Ángeles López de Ayala, 7, 14005 Córdoba, Spain",957 34 57 92,http://www.clinicaifem.com/,CLINICA IFEM,https://maps.google.com/?cid=8327663546050147073
spain,Córdoba,Clínica Povedano,37.9036791,-4.7947432,"C. Poeta Valdelomar Pineda, 15, Nte. Sierra, 14012 Córdoba, Spain",957 28 23 29,https://doctorespovedano.com/,Gynecological Clinic Doctors Povedano,https://maps.google.com/?cid=6236690482953798030
spain,Córdoba,H. U. Reina Sofia,37.8677597,-4.7977996,"Av. Menéndez Pidal, s/n, Poniente Sur, 14004 Córdoba, Spain",,http://www.juntadeandalucia.es/servicioandaluzdesalud/hrs3,Hospital Universitario Reina Sofia,https://maps.google.com/?cid=6834295919267081244
spain,El Ejido,Clínica JOFRE-FIV,36.7745491,-2.8055374,"Blvr. de el Ejido, 430, 04700 El Ejido, Almería, Spain",950 48 09 80,https://www.clinicajofrefiv.es/,Clínica Jofrefiv,https://maps.google.com/?cid=18340285120136728437
spain,El Palmar,Hospital Clínico Universitario Virgen de la Arrixaca,37.9326574,-1.162527,"Ctra. Madrid-Cartagena, s/n, 30120 El Palmar, Murcia, Spain",968 36 95 00,http://www.murciasalud.es/seccion.php?idsec=347,Virgen of Arrixaca University Clinical Hospital,https://maps.google.com/?cid=2123067544921391013
spain,Elche,H. General De Elche,38.2600447,-0.6849144,"Carrer Almazara, 11, 03203 Elche, Alicante, Spain",966 61 69 00,http://www.elche.san.gva.es/portada,Hospital General Universitario de Elche,https://maps.google.com/?cid=17304815164687683742
spain,Elche,In Vitam Centro de Medicina Reproductiva,38.2733318,-0.6864399,"Avinguda de la Universitat d'Elx, 24, 03202 Elche, Alicante, Spain",,http://www.invitam.es/,In Vitam,https://maps.google.com/?cid=13806898717809622406
spain,Figueres,FIV Obradors,42.2626134,2.9583641,"Avinguda de Salvador Dalí i Domènech, 85, 17600 Figueres, Girona, Spain",972 50 05 00,http://www.fivobradors.com/,FIV Obradors,https://maps.google.com/?cid=9625120966442943713
spain,Fuengirola,Clínica Fertia,36.5433714,-4.6241315,"N° 4, Av. Alcalde Clemente Díaz Ruiz, 29640 Fuengirola, Málaga, Spain",952 59 23 23,http://www.clinicafertia.com/,Clínica Fertia,https://maps.google.com/?cid=5092926242210383639
spain,Getafe,H. De Getafe,40.3125445,-3.7423229,"Carr. Madrid - Toledo, Km 12,500, 28905 Getafe, Madrid, Spain",916 83 93 60,https://www.comunidad.madrid/hospital/getafe/,Getafe University Hospital,https://maps.google.com/?cid=8023950804670257929
spain,Getafe,Instituto Para El Estudio De La Esterilidad,40.3046051,-3.7254008,"C. Arboleda, 34, 28901 Getafe, Madrid, Spain",916 01 92 35,https://estudioesterilidad.com/,Instituto para el Estudio de la Esterilidad - IEE,https://maps.google.com/?cid=6342234251596942186
spain,Gijón,FIV4-Instituto de Reproducción Humana Gijón,,,,,,,
spain,Gijón,Clínica Ergo Biotech SL,43.53501,-5.67832,"Av. de Portugal, 96-98, 100 bajo, Gijon-Sur, 33207 Gijón, Asturias, Spain",984 83 30 03,https://clinicaergo.com/,Clínica ERGO,https://maps.google.com/?cid=13269251886625100703
spain,Girona,Centro De Genética Girona,41.9816167,2.8189397,"Carrer Barcelona, 2, 17002 Girona, Spain",972 21 74 07,https://www.ueg-reproduccion.com/,Centre de Genètica Girona,https://maps.google.com/?cid=9901378369833279919
spain,Girona,Girexx (FIV Girona SLP),41.9761934,2.8251163,"Carrer Heroïnes de Santa Bàrbara, 6, 17004 Girona, Spain",972 22 60 04,http://www.girexx.cat/,Girexx,https://maps.google.com/?cid=12388023034945323489
spain,Girona,Hospital Universitari De Girona Doctor Josep Trueta,41.9975709,2.8199659,"Avinguda de França, S/N, 17007 Girona, Spain",972 94 02 00,,Hospital Universitari de Girona Doctor Josep Trueta,https://maps.google.com/?cid=1949199503781137906
spain,Girona,Unitat de Reproduccio Humana i Diagnostìc Genètic. Clínica Girona,41.9632949,2.8113794,"Carrer Barcelona, 204-206, 2a planta, 17005 Girona, Spain",972 20 52 62,http://www.girofiv.com/,GIROFIV - Clínica Girona - Unitat de Reproducció Assistida,https://maps.google.com/?cid=10148476971766228224
spain,Guadalajara,FIV Laber,40.6296609,-3.1758087,"C/ Constitución, 18, 19003 Guadalajara, Spain",949 20 79 96,http://www.fivlaber.es/,Fivlaber,https://maps.google.com/?cid=1802942020261696547
spain,Granada,Clínica Sanabria,37.1839997,-3.6035582,"Av. de la Constitución, 4, Albaicín, 18012 Granada, Spain",958 20 42 52,https://clinicasanabria.com/?utm_source=google&utm_medium=Maps&utm_campaign=Google%20Maps&utm_content=web,Sanabria clinic Granada,https://maps.google.com/?cid=16975261577553329593
spain,Granada,H.U. Virgen de las Nieves,37.1886365,-3.609843,"Av. de las Fuerzas Armadas, 2, Beiro, 18014 Granada, Spain",958 02 00 00,http://www.huvn.es/,Virgen de las Nieves University Hospital,https://maps.google.com/?cid=15211791854395474726
spain,Granada,Instituto Avantia de Fertilidad,37.1586661,-3.6077285,"C. Emir, 1, Ronda, 18006 Granada, Spain",958 08 10 49,https://www.avantiafertilidad.com/,Fertility Institute Avantia,https://maps.google.com/?cid=16141344362306383665
spain,Granada,MAR&Gen,37.1639348,-3.6017589,"C. Rey Abu Said, 6T, Ronda, 18006 Granada, Spain",958 12 02 06,https://www.clinicamargen.com/en/,MAR&Gen,https://maps.google.com/?cid=499762329821817591
spain,Granada,UR HOSPITAL INMACULADA,37.1639774,-3.6081701,"Calle Dr. Alejandro Otero, 8, Ronda, 18004 Granada, Spain",958 25 38 00,https://www.grupohla.com/hlahospitalinmaculada,HLA Hospital Universitario Inmaculada,https://maps.google.com/?cid=15932436673838939009
spain,Granada,VITHAS Hospital la Salud,37.1646815,-3.572598,"Av. Santa María de la Alhambra, 6, Genil, 18008 Granada, Spain",958 80 88 80,https://vithas.es/centro/vithas-hospital-granada/,Hospital Vithas Granada,https://maps.google.com/?cid=18237236312150370453
spain,Granada,"Aluz, Clínica de Fertilidad Avanzada",37.1598403,-3.608306,"C. José Luis Pérez Pujadas, s/n, Ronda, 18006 Granada, Spain",958 04 58 79,https://aluz.es/,Aluz Clínica de Fertilidad Avanzada Granada,https://maps.google.com/?cid=16323181625003510758
spain,Granada,Clínica Pedrosa,37.1715834,-3.6070615,"Cam. de Rda., 79, Ronda, 18004 Granada, Spain",958 26 74 94,https://cpedrosa.com/?utm_source=business&utm_medium=organic&utm_campaign=my_business,Ginecólogas Granada - Clínica Pedrosa - Ginecóloga,https://maps.google.com/?cid=11024391509838859010
spain,Granada,Clínica INAGOR,37.1755291,-3.6017554,"C. Alhóndiga, 37, Centro, 18001 Granada, Spain",958 52 05 99,http://www.clinicadoctormenjon.com/,"Dr. Menjon Beltrán, Salomón Clínica Inagor - Clínica Ginecológica - Ginecólogos",https://maps.google.com/?cid=3013835154813698575
spain,Granollers,FECUNMED,41.6069107,2.289931,"Plaça de Pau Casals, s/n Edifici Mútua del Carme, 3a planta, 08402 Granollers, Barcelona, Spain",938 61 18 28,https://fecunmed.com/,FecunMed - Fertilidad y reproducción asistida en Granollers,https://maps.google.com/?cid=17610567129143346282
spain,Huelva,Hospital Costa de la Luz,37.2668184,-6.9537073,"C. Punta Umbría, 8, 21002 Huelva, Spain",959 24 21 00,https://www.quironsalud.es/huelva/,Hospital Quirónsalud Huelva,https://maps.google.com/?cid=11388830534466699863
spain,Huelva,Hospital Vázquez Díaz,37.279777,-6.9210937,"Avenida Nte, s/n, 21080 Huelva, Spain",959 01 46 20,http://ahjuanramonjimenez.es/,Hospital Vázquez Díaz,https://maps.google.com/?cid=16081343187388977335
spain,Ibiza,Hospital Can Misses,38.9159687,1.4188528,"Carrer de Corona, s/n, 07800 Eivissa, Illes Balears, Spain",971 39 70 00,https://m.facebook.com/pages/Hospital-Can-Misses/141796475875007,Hospital Can Misses,https://maps.google.com/?cid=5460484825165009406
